$GNRMC,212620.00,V,,,,,,,260720,,,N*67
$GNVTG,,,,,,,,,N*2E
$GNGGA,212620.00,,,,,0,00,99.99,,,,,,*7D
$GNGSA,A,1,,,,,,,,,,,,,99.99,99.99,99.99*2E
$GNGSA,A,1,,,,,,,,,,,,,99.99,99.99,99.99*2E
$GPGSV,2,1,05,15,,,33,18,,,31,23,,,27,26,,,28*7A
$GPGSV,2,2,05,29,,,25*70
$GLGSV,1,1,00*65
$GNGLL,,,,,212620.00,V,N*51
$GNRMC,212621.00,V,,,,,,,260720,,,N*66
$GNVTG,,,,,,,,,N*2E
$GNGGA,212621.00,,,,,0,00,99.99,,,,,,*7C
$GNGSA,A,1,,,,,,,,,,,,,99.99,99.99,99.99*2E
$GNGSA,A,1,,,,,,,,,,,,,99.99,99.99,99.99*2E
$GPGSV,2,1,05,15,,,33,18,,,30,23,,,27,26,,,26*75
$GPGSV,2,2,05,29,,,25*70
$GLGSV,1,1,00*65
$GNGLL,,,,,212621.00,V,N*50
$GNRMC,212622.00,V,,,,,,,260720,,,N*65
$GNVTG,,,,,,,,,N*2E
$GNGGA,212622.00,,,,,0,00,99.99,,,,,,*7F
$GNGSA,A,1,,,,,,,,,,,,,99.99,99.99,99.99*2E
$GNGSA,A,1,,,,,,,,,,,,,99.99,99.99,99.99*2E
$GPGSV,2,1,05,15,,,33,18,,,30,23,,,27,26,,,26*75
$GPGSV,2,2,05,29,,,25*70
$GLGSV,1,1,00*65
$GNGLL,,,,,212622.00,V,N*53
$GNRMC,212623.00,V,,,,,,,260720,,,N*64
$GNVTG,,,,,,,,,N*2E
$GNGGA,212623.00,,,,,0,00,99.99,,,,,,*7E
$GNGSA,A,1,,,,,,,,,,,,,99.99,99.99,99.99*2E
$GNGSA,A,1,,,,,,,,,,,,,99.99,99.99,99.99*2E
$GPGSV,2,1,05,15,,,33,18,,,30,23,,,27,26,,,26*75
$GPGSV,2,2,05,29,,,25*70
$GLGSV,1,1,00*65
$GNGLL,,,,,212623.00,V,N*52
$GNRMC,212624.00,V,,,,,,,260720,,,N*63
$GNVTG,,,,,,,,,N*2E
$GNGGA,212624.00,,,,,0,00,99.99,,,,,,*79
$GNGSA,A,1,,,,,,,,,,,,,99.99,99.99,99.99*2E
$GNGSA,A,1,,,,,,,,,,,,,99.99,99.99,99.99*2E
$GPGSV,2,1,05,15,,,33,18,,,30,23,,,27,26,,,26*75
$GPGSV,2,2,05,29,,,25*70
$GLGSV,1,1,00*65
$GNGLL,,,,,212624.00,V,N*55
$GNRMC,212625.00,V,,,,,,,260720,,,N*62
$GNVTG,,,,,,,,,N*2E
$GNGGA,212625.00,,,,,0,00,99.99,,,,,,*78
$GNGSA,A,1,,,,,,,,,,,,,99.99,99.99,99.99*2E
$GNGSA,A,1,,,,,,,,,,,,,99.99,99.99,99.99*2E
$GPGSV,2,1,05,15,,,33,18,,,30,23,,,27,26,,,27*74
$GPGSV,2,2,05,29,,,25*70
$GLGSV,1,1,00*65
$GNGLL,,,,,212625.00,V,N*54
$GNRMC,212626.00,V,,,,,,,260720,,,N*61
$GNVTG,,,,,,,,,N*2E
$GNGGA,212626.00,,,,,0,00,99.99,,,,,,*7B
$GNGSA,A,1,,,,,,,,,,,,,99.99,99.99,99.99*2E
$GNGSA,A,1,,,,,,,,,,,,,99.99,99.99,99.99*2E
$GPGSV,2,1,05,15,,,36,18,,,28,23,,,27,26,,,25*7A
$GPGSV,2,2,05,29,,,25*70
$GLGSV,1,1,00*65
$GNGLL,,,,,212626.00,V,N*57
$GNRMC,212627.00,V,,,,,,,260720,,,N*60
$GNVTG,,,,,,,,,N*2E
$GNGGA,212627.00,,,,,0,00,99.99,,,,,,*7A
$GNGSA,A,1,,,,,,,,,,,,,99.99,99.99,99.99*2E
$GNGSA,A,1,,,,,,,,,,,,,99.99,99.99,99.99*2E
$GPGSV,2,1,05,15,,,32,18,,,27,23,,,28,26,,,22*79
$GPGSV,2,2,05,29,,,24*71
$GLGSV,1,1,00*65
$GNGLL,,,,,212627.00,V,N*56
$GNRMC,212628.00,V,,,,,,,260720,,,N*6F
$GNVTG,,,,,,,,,N*2E
$GNGGA,212628.00,,,,,0,00,99.99,,,,,,*75
$GNGSA,A,1,,,,,,,,,,,,,99.99,99.99,99.99*2E
$GNGSA,A,1,,,,,,,,,,,,,99.99,99.99,99.99*2E
$GPGSV,2,1,05,15,,,31,18,,,28,23,,,28,26,,,20*77
$GPGSV,2,2,05,29,,,25*70
$GLGSV,1,1,00*65
$GNGLL,,,,,212628.00,V,N*59
$GNRMC,212629.00,V,,,,,,,260720,,,N*6E
$GNVTG,,,,,,,,,N*2E
$GNGGA,212629.00,,,,,0,00,99.99,,,,,,*74
$GNGSA,A,1,,,,,,,,,,,,,99.99,99.99,99.99*2E
$GNGSA,A,1,,,,,,,,,,,,,99.99,99.99,99.99*2E
$GPGSV,2,1,05,15,,,31,18,,,28,23,,,27,26,,,22*7A
$GPGSV,2,2,05,29,,,26*73
$GLGSV,1,1,00*65
$GNGLL,,,,,212629.00,V,N*58
$GNRMC,212630.00,V,,,,,,,260720,,,N*66
$GNVTG,,,,,,,,,N*2E
$GNGGA,212630.00,,,,,0,00,99.99,,,,,,*7C
$GNGSA,A,1,,,,,,,,,,,,,99.99,99.99,99.99*2E
$GNGSA,A,1,,,,,,,,,,,,,99.99,99.99,99.99*2E
$GPGSV,2,1,05,15,,,31,18,,,28,23,,,26,26,,,23*7A
$GPGSV,2,2,05,29,,,26*73
$GLGSV,1,1,00*65
$GNGLL,,,,,212630.00,V,N*50
$GNRMC,212631.00,V,,,,,,,260720,,,N*67
$GNVTG,,,,,,,,,N*2E
$GNGGA,212631.00,,,,,0,00,99.99,,,,,,*7D
$GNGSA,A,1,,,,,,,,,,,,,99.99,99.99,99.99*2E
$GNGSA,A,1,,,,,,,,,,,,,99.99,99.99,99.99*2E
$GPGSV,2,1,05,15,,,32,18,,,27,23,,,25,26,,,25*73
$GPGSV,2,2,05,29,,,26*73
$GLGSV,1,1,00*65
$GNGLL,,,,,212631.00,V,N*51
$GNRMC,212632.00,V,,,,,,,260720,,,N*64
$GNVTG,,,,,,,,,N*2E
$GNGGA,212632.00,,,,,0,00,99.99,,,,,,*7E
$GNGSA,A,1,,,,,,,,,,,,,99.99,99.99,99.99*2E
$GNGSA,A,1,,,,,,,,,,,,,99.99,99.99,99.99*2E
$GPGSV,2,1,05,15,,,32,18,,,26,23,,,24,26,,,25*73
$GPGSV,2,2,05,29,,,27*72
$GLGSV,1,1,00*65
$GNGLL,,,,,212632.00,V,N*52
$GNRMC,212633.00,V,,,,,,,260720,,,N*65
$GNVTG,,,,,,,,,N*2E
$GNGGA,212633.00,,,,,0,00,99.99,,,,,,*7F
$GNGSA,A,1,,,,,,,,,,,,,99.99,99.99,99.99*2E
$GNGSA,A,1,,,,,,,,,,,,,99.99,99.99,99.99*2E
$GPGSV,2,1,05,15,,,31,18,,,27,23,,,24,26,,,25*71
$GPGSV,2,2,05,29,,,27*72
$GLGSV,1,1,00*65
$GNGLL,,,,,212633.00,V,N*53
$GNRMC,212634.00,V,,,,,,,260720,,,N*62
$GNVTG,,,,,,,,,N*2E
$GNGGA,212634.00,,,,,0,00,99.99,,,,,,*78
$GNGSA,A,1,,,,,,,,,,,,,99.99,99.99,99.99*2E
$GNGSA,A,1,,,,,,,,,,,,,99.99,99.99,99.99*2E
$GPGSV,2,1,05,15,,,31,18,,,27,23,,,24,26,,,25*71
$GPGSV,2,2,05,29,,,27*72
$GLGSV,1,1,00*65
$GNGLL,,,,,212634.00,V,N*54
$GNRMC,212635.00,V,,,,,,,260720,,,N*63
$GNVTG,,,,,,,,,N*2E
$GNGGA,212635.00,,,,,0,00,99.99,,,,,,*79
$GNGSA,A,1,,,,,,,,,,,,,99.99,99.99,99.99*2E
$GNGSA,A,1,,,,,,,,,,,,,99.99,99.99,99.99*2E
$GPGSV,2,1,06,13,,,28,15,,,30,18,,,27,23,,,23*7F
$GPGSV,2,2,06,26,,,24,29,,,27*73
$GLGSV,1,1,00*65
$GNGLL,,,,,212635.00,V,N*55
$GNRMC,212636.00,V,,,,,,,260720,,,N*60
$GNVTG,,,,,,,,,N*2E
$GNGGA,212636.00,,,,,0,00,99.99,,,,,,*7A
$GNGSA,A,1,,,,,,,,,,,,,99.99,99.99,99.99*2E
$GNGSA,A,1,,,,,,,,,,,,,99.99,99.99,99.99*2E
$GPGSV,2,1,06,13,,,28,15,,,29,18,,,27,23,,,24*70
$GPGSV,2,2,06,26,,,25,29,,,27*72
$GLGSV,1,1,00*65
$GNGLL,,,,,212636.00,V,N*56
$GNRMC,212637.00,V,,,,,,,260720,,,N*61
$GNVTG,,,,,,,,,N*2E
$GNGGA,212637.00,,,,,0,00,99.99,,,,,,*7B
$GNGSA,A,1,,,,,,,,,,,,,99.99,99.99,99.99*2E
$GNGSA,A,1,,,,,,,,,,,,,99.99,99.99,99.99*2E
$GPGSV,2,1,06,13,,,29,15,,,30,18,,,27,23,,,25*78
$GPGSV,2,2,06,26,,,24,29,,,27*73
$GLGSV,1,1,00*65
$GNGLL,,,,,212637.00,V,N*57
$GNRMC,212638.00,V,,,,,,,260720,,,N*6E
$GNVTG,,,,,,,,,N*2E
$GNGGA,212638.00,,,,,0,00,99.99,,,,,,*74
$GNGSA,A,1,,,,,,,,,,,,,99.99,99.99,99.99*2E
$GNGSA,A,1,,,,,,,,,,,,,99.99,99.99,99.99*2E
$GPGSV,2,1,06,13,,,28,15,,,31,18,,,27,23,,,26*7B
$GPGSV,2,2,06,26,,,25,29,,,27*72
$GLGSV,1,1,00*65
$GNGLL,,,,,212638.00,V,N*58
$GNRMC,212639.00,V,,,,,,,260720,,,N*6F
$GNVTG,,,,,,,,,N*2E
$GNGGA,212639.00,,,,,0,00,99.99,,,,,,*75
$GNGSA,A,1,,,,,,,,,,,,,99.99,99.99,99.99*2E
$GNGSA,A,1,,,,,,,,,,,,,99.99,99.99,99.99*2E
$GPGSV,2,1,06,13,,,29,15,,,32,18,,,27,23,,,27*78
$GPGSV,2,2,06,26,,,26,29,,,26*70
$GLGSV,1,1,00*65
$GNGLL,,,,,212639.00,V,N*59
$GNRMC,212640.00,V,,,,,,,260720,,,N*61
$GNVTG,,,,,,,,,N*2E
$GNGGA,212640.00,,,,,0,00,99.99,,,,,,*7B
$GNGSA,A,1,,,,,,,,,,,,,99.99,99.99,99.99*2E
$GNGSA,A,1,,,,,,,,,,,,,99.99,99.99,99.99*2E
$GPGSV,2,1,06,13,,,28,15,,,31,18,,,27,23,,,27*7A
$GPGSV,2,2,06,26,,,26,29,,,26*70
$GLGSV,1,1,00*65
$GNGLL,,,,,212640.00,V,N*57
$GNRMC,212641.00,V,,,,,,,260720,,,N*60
$GNVTG,,,,,,,,,N*2E
$GNGGA,212641.00,,,,,0,00,99.99,,,,,,*7A
$GNGSA,A,1,,,,,,,,,,,,,99.99,99.99,99.99*2E
$GNGSA,A,1,,,,,,,,,,,,,99.99,99.99,99.99*2E
$GPGSV,2,1,06,13,,,29,15,,,32,18,,,29,23,,,26*77
$GPGSV,2,2,06,26,,,28,29,,,26*7E
$GLGSV,1,1,00*65
$GNGLL,,,,,212641.00,V,N*56
$GNRMC,212642.00,V,,,,,,,260720,,,N*63
$GNVTG,,,,,,,,,N*2E
$GNGGA,212642.00,,,,,0,00,99.99,,,,,,*79
$GNGSA,A,1,,,,,,,,,,,,,99.99,99.99,99.99*2E
$GNGSA,A,1,,,,,,,,,,,,,99.99,99.99,99.99*2E
$GPGSV,2,1,06,13,,,29,15,,,32,18,,,30,23,,,26*7F
$GPGSV,2,2,06,26,,,28,29,,,26*7E
$GLGSV,1,1,00*65
$GNGLL,,,,,212642.00,V,N*55
$GNRMC,212643.00,V,,,,,,,260720,,,N*62
$GNVTG,,,,,,,,,N*2E
$GNGGA,212643.00,,,,,0,00,99.99,,,,,,*78
$GNGSA,A,1,,,,,,,,,,,,,99.99,99.99,99.99*2E
$GNGSA,A,1,,,,,,,,,,,,,99.99,99.99,99.99*2E
$GPGSV,2,1,06,13,,,29,15,,,32,18,,,30,23,,,26*7F
$GPGSV,2,2,06,26,,,28,29,,,26*7E
$GLGSV,1,1,00*65
$GNGLL,,,,,212643.00,V,N*54
$GNRMC,212644.00,V,,,,,,,260720,,,N*65
$GNVTG,,,,,,,,,N*2E
$GNGGA,212644.00,,,,,0,00,99.99,,,,,,*7F
$GNGSA,A,1,,,,,,,,,,,,,99.99,99.99,99.99*2E
$GNGSA,A,1,,,,,,,,,,,,,99.99,99.99,99.99*2E
$GPGSV,2,1,06,13,,,29,15,,,33,18,,,30,23,,,26*7E
$GPGSV,2,2,06,26,,,28,29,,,25*7D
$GLGSV,1,1,00*65
$GNGLL,,,,,212644.00,V,N*53
$GNRMC,212645.00,V,,,,,,,260720,,,N*64
$GNVTG,,,,,,,,,N*2E
$GNGGA,212645.00,,,,,0,00,99.99,,,,,,*7E
$GNGSA,A,1,,,,,,,,,,,,,99.99,99.99,99.99*2E
$GNGSA,A,1,,,,,,,,,,,,,99.99,99.99,99.99*2E
$GPGSV,2,1,06,13,,,28,15,,,33,18,,,30,23,,,25*7C
$GPGSV,2,2,06,26,,,28,29,,,25*7D
$GLGSV,1,1,00*65
$GNGLL,,,,,212645.00,V,N*52
$GNRMC,212646.00,V,,,,,,,260720,,,N*67
$GNVTG,,,,,,,,,N*2E
$GNGGA,212646.00,,,,,0,00,99.99,,,,,,*7D
$GNGSA,A,1,,,,,,,,,,,,,99.99,99.99,99.99*2E
$GNGSA,A,1,,,,,,,,,,,,,99.99,99.99,99.99*2E
$GPGSV,2,1,06,13,,,28,15,,,32,18,,,30,23,,,25*7D
$GPGSV,2,2,06,26,,,28,29,,,24*7C
$GLGSV,1,1,00*65
$GNGLL,,,,,212646.00,V,N*51
$GNRMC,212647.00,V,,,,,,,260720,,,N*66
$GNVTG,,,,,,,,,N*2E
$GNGGA,212647.00,,,,,0,00,99.99,,,,,,*7C
$GNGSA,A,1,,,,,,,,,,,,,99.99,99.99,99.99*2E
$GNGSA,A,1,,,,,,,,,,,,,99.99,99.99,99.99*2E
$GPGSV,2,1,06,13,,,28,15,,,32,18,,,30,23,,,26*7E
$GPGSV,2,2,06,26,,,27,29,,,26*71
$GLGSV,1,1,00*65
$GNGLL,,,,,212647.00,V,N*50
$GNRMC,212648.00,V,,,,,,,260720,,,N*69
$GNVTG,,,,,,,,,N*2E
$GNGGA,212648.00,,,,,0,00,99.99,,,,,,*73
$GNGSA,A,1,,,,,,,,,,,,,99.99,99.99,99.99*2E
$GNGSA,A,1,,,,,,,,,,,,,99.99,99.99,99.99*2E
$GPGSV,2,1,06,13,,,29,15,,,32,18,,,30,23,,,27*7E
$GPGSV,2,2,06,26,,,27,29,,,27*70
$GLGSV,1,1,00*65
$GNGLL,,,,,212648.00,V,N*5F
$GNRMC,212649.00,V,,,,,,,260720,,,N*68
$GNVTG,,,,,,,,,N*2E
$GNGGA,212649.00,,,,,0,00,99.99,,,,,,*72
$GNGSA,A,1,,,,,,,,,,,,,99.99,99.99,99.99*2E
$GNGSA,A,1,,,,,,,,,,,,,99.99,99.99,99.99*2E
$GPGSV,2,1,06,13,,,29,15,,,32,18,,,30,23,,,26*7F
$GPGSV,2,2,06,26,,,27,29,,,28*7F
$GLGSV,1,1,00*65
$GNGLL,,,,,212649.00,V,N*5E
$GNRMC,212650.00,V,,,,,,,260720,,,N*60
$GNVTG,,,,,,,,,N*2E
$GNGGA,212650.00,,,,,0,00,99.99,,,,,,*7A
$GNGSA,A,1,,,,,,,,,,,,,99.99,99.99,99.99*2E
$GNGSA,A,1,,,,,,,,,,,,,99.99,99.99,99.99*2E
$GPGSV,2,1,06,13,,,29,15,,,32,18,,,31,23,,,26*7E
$GPGSV,2,2,06,26,,,27,29,,,28*7F
$GLGSV,1,1,00*65
$GNGLL,,,,,212650.00,V,N*56
$GNRMC,212651.00,V,,,,,,,260720,,,N*61
$GNVTG,,,,,,,,,N*2E
$GNGGA,212651.00,,,,,0,00,99.99,,,,,,*7B
$GNGSA,A,1,,,,,,,,,,,,,99.99,99.99,99.99*2E
$GNGSA,A,1,,,,,,,,,,,,,99.99,99.99,99.99*2E
$GPGSV,2,1,06,13,,,29,15,,,32,18,,,31,23,,,26*7E
$GPGSV,2,2,06,26,,,27,29,,,28*7F
$GLGSV,1,1,00*65
$GNGLL,,,,,212651.00,V,N*57
$GNRMC,212652.00,V,,,,,,,260720,,,N*62
$GNVTG,,,,,,,,,N*2E
$GNGGA,212652.00,,,,,0,00,99.99,,,,,,*78
$GNGSA,A,1,,,,,,,,,,,,,99.99,99.99,99.99*2E
$GNGSA,A,1,,,,,,,,,,,,,99.99,99.99,99.99*2E
$GPGSV,2,1,06,13,,,29,15,,,32,18,,,31,23,,,25*7D
$GPGSV,2,2,06,26,,,26,29,,,27*71
$GLGSV,1,1,00*65
$GNGLL,,,,,212652.00,V,N*54
$GNRMC,212653.00,V,,,,,,,260720,,,N*63
$GNVTG,,,,,,,,,N*2E
$GNGGA,212653.00,,,,,0,00,99.99,,,,,,*79
$GNGSA,A,1,,,,,,,,,,,,,99.99,99.99,99.99*2E
$GNGSA,A,1,,,,,,,,,,,,,99.99,99.99,99.99*2E
$GPGSV,2,1,06,13,,,29,15,,,32,18,,,31,23,,,24*7C
$GPGSV,2,2,06,26,,,27,29,,,27*70
$GLGSV,1,1,00*65
$GNGLL,,,,,212653.00,V,N*55
$GNRMC,212654.00,V,,,,,,,260720,,,N*64
$GNVTG,,,,,,,,,N*2E
$GNGGA,212654.00,,,,,0,00,99.99,,,,,,*7E
$GNGSA,A,1,,,,,,,,,,,,,99.99,99.99,99.99*2E
$GNGSA,A,1,,,,,,,,,,,,,99.99,99.99,99.99*2E
$GPGSV,2,1,06,13,,,28,15,,,31,18,,,31,23,,,25*7F
$GPGSV,2,2,06,26,,,28,29,,,26*7E
$GLGSV,1,1,00*65
$GNGLL,,,,,212654.00,V,N*52
$GNRMC,212655.00,V,,,,,,,260720,,,N*65
$GNVTG,,,,,,,,,N*2E
$GNGGA,212655.00,,,,,0,00,99.99,,,,,,*7F
$GNGSA,A,1,,,,,,,,,,,,,99.99,99.99,99.99*2E
$GNGSA,A,1,,,,,,,,,,,,,99.99,99.99,99.99*2E
$GPGSV,2,1,06,13,,,28,15,,,31,18,,,30,23,,,25*7E
$GPGSV,2,2,06,26,,,28,29,,,25*7D
$GLGSV,1,1,00*65
$GNGLL,,,,,212655.00,V,N*53
$GNRMC,212656.00,V,,,,,,,260720,,,N*66
$GNVTG,,,,,,,,,N*2E
$GNGGA,212656.00,,,,,0,00,99.99,,,,,,*7C
$GNGSA,A,1,,,,,,,,,,,,,99.99,99.99,99.99*2E
$GNGSA,A,1,,,,,,,,,,,,,99.99,99.99,99.99*2E
$GPGSV,2,1,06,13,,,28,15,,,32,18,,,30,23,,,25*7D
$GPGSV,2,2,06,26,,,27,29,,,26*71
$GLGSV,1,1,00*65
$GNGLL,,,,,212656.00,V,N*50
$GNRMC,212657.00,V,,,,,,,260720,,,N*67
$GNVTG,,,,,,,,,N*2E
$GNGGA,212657.00,,,,,0,00,99.99,,,,,,*7D
$GNGSA,A,1,,,,,,,,,,,,,99.99,99.99,99.99*2E
$GNGSA,A,1,,,,,,,,,,,,,99.99,99.99,99.99*2E
$GPGSV,2,1,06,13,,,28,15,,,32,18,,,29,23,,,26*76
$GPGSV,2,2,06,26,,,27,29,,,26*71
$GLGSV,1,1,00*65
$GNGLL,,,,,212657.00,V,N*51
$GNRMC,212658.00,V,,,,,,,260720,,,N*68
$GNVTG,,,,,,,,,N*2E
$GNGGA,212658.00,,,,,0,00,99.99,,,,,,*72
$GNGSA,A,1,,,,,,,,,,,,,99.99,99.99,99.99*2E
$GNGSA,A,1,,,,,,,,,,,,,99.99,99.99,99.99*2E
$GPGSV,2,1,06,13,,,28,15,,,32,18,,,31,23,,,27*7E
$GPGSV,2,2,06,26,,,26,29,,,26*70
$GLGSV,1,1,00*65
$GNGLL,,,,,212658.00,V,N*5E
$GNRMC,212659.00,V,,,,,,,260720,,,N*69
$GNVTG,,,,,,,,,N*2E
$GNGGA,212659.00,,,,,0,00,99.99,,,,,,*73
$GNGSA,A,1,,,,,,,,,,,,,99.99,99.99,99.99*2E
$GNGSA,A,1,,,,,,,,,,,,,99.99,99.99,99.99*2E
$GPGSV,2,1,06,13,,,28,15,,,32,18,,,31,23,,,27*7E
$GPGSV,2,2,06,26,,,25,29,,,27*72
$GLGSV,1,1,00*65
$GNGLL,,,,,212659.00,V,N*5F
$GNRMC,212700.00,V,,,,,,,260720,,,N*64
$GNVTG,,,,,,,,,N*2E
$GNGGA,212700.00,,,,,0,00,99.99,,,,,,*7E
$GNGSA,A,1,,,,,,,,,,,,,99.99,99.99,99.99*2E
$GNGSA,A,1,,,,,,,,,,,,,99.99,99.99,99.99*2E
$GPGSV,2,1,06,13,,,28,15,,,32,18,,,30,23,,,27*7F
$GPGSV,2,2,06,26,,,25,29,,,26*73
$GLGSV,1,1,00*65
$GNGLL,,,,,212700.00,V,N*52
$GNRMC,212701.00,V,,,,,,,260720,,,N*65
$GNVTG,,,,,,,,,N*2E
$GNGGA,212701.00,,,,,0,00,99.99,,,,,,*7F
$GNGSA,A,1,,,,,,,,,,,,,99.99,99.99,99.99*2E
$GNGSA,A,1,,,,,,,,,,,,,99.99,99.99,99.99*2E
$GPGSV,2,1,06,13,,,28,15,,,32,18,,,31,23,,,26*7F
$GPGSV,2,2,06,26,,,26,29,,,26*70
$GLGSV,1,1,00*65
$GNGLL,,,,,212701.00,V,N*53
$GNRMC,212702.00,V,,,,,,,260720,,,N*66
$GNVTG,,,,,,,,,N*2E
$GNGGA,212702.00,,,,,0,00,99.99,,,,,,*7C
$GNGSA,A,1,,,,,,,,,,,,,99.99,99.99,99.99*2E
$GNGSA,A,1,,,,,,,,,,,,,99.99,99.99,99.99*2E
$GPGSV,2,1,06,13,,,28,15,,,31,18,,,30,23,,,26*7D
$GPGSV,2,2,06,26,,,26,29,,,26*70
$GLGSV,1,1,00*65
$GNGLL,,,,,212702.00,V,N*50
$GNRMC,212703.00,V,,,,,,,260720,,,N*67
$GNVTG,,,,,,,,,N*2E
$GNGGA,212703.00,,,,,0,00,99.99,,,,,,*7D
$GNGSA,A,1,,,,,,,,,,,,,99.99,99.99,99.99*2E
$GNGSA,A,1,,,,,,,,,,,,,99.99,99.99,99.99*2E
$GPGSV,2,1,06,13,,,28,15,,,31,18,,,30,23,,,26*7D
$GPGSV,2,2,06,26,,,26,29,,,27*71
$GLGSV,1,1,00*65
$GNGLL,,,,,212703.00,V,N*51
$GNRMC,212704.00,V,,,,,,,260720,,,N*60
$GNVTG,,,,,,,,,N*2E
$GNGGA,212704.00,,,,,0,00,99.99,,,,,,*7A
$GNGSA,A,1,,,,,,,,,,,,,99.99,99.99,99.99*2E
$GNGSA,A,1,,,,,,,,,,,,,99.99,99.99,99.99*2E
$GPGSV,2,1,06,13,,,28,15,,,31,18,,,30,23,,,26*7D
$GPGSV,2,2,06,26,,,26,29,,,27*71
$GLGSV,1,1,00*65
$GNGLL,,,,,212704.00,V,N*56
$GNRMC,212705.00,V,,,,,,,260720,,,N*61
$GNVTG,,,,,,,,,N*2E
$GNGGA,212705.00,,,,,0,00,99.99,,,,,,*7B
$GNGSA,A,1,,,,,,,,,,,,,99.99,99.99,99.99*2E
$GNGSA,A,1,,,,,,,,,,,,,99.99,99.99,99.99*2E
$GPGSV,2,1,06,13,,,28,15,,,31,18,,,29,23,,,26*75
$GPGSV,2,2,06,26,,,26,29,,,27*71
$GLGSV,1,1,00*65
$GNGLL,,,,,212705.00,V,N*57
$GNRMC,212706.00,V,,,,,,,260720,,,N*62
$GNVTG,,,,,,,,,N*2E
$GNGGA,212706.00,,,,,0,00,99.99,,,,,,*78
$GNGSA,A,1,,,,,,,,,,,,,99.99,99.99,99.99*2E
$GNGSA,A,1,,,,,,,,,,,,,99.99,99.99,99.99*2E
$GPGSV,2,1,06,13,,,28,15,,,31,18,,,29,23,,,26*75
$GPGSV,2,2,06,26,,,26,29,,,26*70
$GLGSV,1,1,00*65
$GNGLL,,,,,212706.00,V,N*54
$GNRMC,212707.00,V,,,,,,,260720,,,N*63
$GNVTG,,,,,,,,,N*2E
$GNGGA,212707.00,,,,,0,00,99.99,,,,,,*79
$GNGSA,A,1,,,,,,,,,,,,,99.99,99.99,99.99*2E
$GNGSA,A,1,,,,,,,,,,,,,99.99,99.99,99.99*2E
$GPGSV,2,1,06,13,,,28,15,,,32,18,,,29,23,,,26*76
$GPGSV,2,2,06,26,,,26,29,,,26*70
$GLGSV,1,1,00*65
$GNGLL,,,,,212707.00,V,N*55
$GNRMC,212708.00,V,,,,,,,260720,,,N*6C
$GNVTG,,,,,,,,,N*2E
$GNGGA,212708.00,,,,,0,00,99.99,,,,,,*76
$GNGSA,A,1,,,,,,,,,,,,,99.99,99.99,99.99*2E
$GNGSA,A,1,,,,,,,,,,,,,99.99,99.99,99.99*2E
$GPGSV,2,1,06,13,,,28,15,,,32,18,,,31,23,,,26*7F
$GPGSV,2,2,06,26,,,25,29,,,26*73
$GLGSV,1,1,00*65
$GNGLL,,,,,212708.00,V,N*5A
$GNRMC,212709.00,V,,,,,,,260720,,,N*6D
$GNVTG,,,,,,,,,N*2E
$GNGGA,212709.00,,,,,0,00,99.99,,,,,,*77
$GNGSA,A,1,,,,,,,,,,,,,99.99,99.99,99.99*2E
$GNGSA,A,1,,,,,,,,,,,,,99.99,99.99,99.99*2E
$GPGSV,2,1,06,13,,,27,15,,,31,18,,,30,23,,,25*71
$GPGSV,2,2,06,26,,,26,29,,,26*70
$GLGSV,1,1,00*65
$GNGLL,,,,,212709.00,V,N*5B
$GNRMC,212710.00,V,,,,,,,260720,,,N*65
$GNVTG,,,,,,,,,N*2E
$GNGGA,212710.00,,,,,0,00,99.99,,,,,,*7F
$GNGSA,A,1,,,,,,,,,,,,,99.99,99.99,99.99*2E
$GNGSA,A,1,,,,,,,,,,,,,99.99,99.99,99.99*2E
$GPGSV,2,1,06,13,,,26,15,,,26,18,,,23,23,,,26*77
$GPGSV,2,2,06,26,,,26,29,,,25*73
$GLGSV,1,1,00*65
$GNGLL,,,,,212710.00,V,N*53
$GNRMC,212711.00,V,,,,,,,260720,,,N*64
$GNVTG,,,,,,,,,N*2E
$GNGGA,212711.00,,,,,0,00,99.99,,,,,,*7E
$GNGSA,A,1,,,,,,,,,,,,,99.99,99.99,99.99*2E
$GNGSA,A,1,,,,,,,,,,,,,99.99,99.99,99.99*2E
$GPGSV,2,1,06,13,,,24,15,,,25,18,,,31,23,,,25*76
$GPGSV,2,2,06,26,,,26,29,,,25*73
$GLGSV,1,1,00*65
$GNGLL,,,,,212711.00,V,N*52
$GNRMC,212712.00,V,,,,,,,260720,,,N*67
$GNVTG,,,,,,,,,N*2E
$GNGGA,212712.00,,,,,0,00,99.99,,,,,,*7D
$GNGSA,A,1,,,,,,,,,,,,,99.99,99.99,99.99*2E
$GNGSA,A,1,,,,,,,,,,,,,99.99,99.99,99.99*2E
$GPGSV,2,1,06,13,,,23,15,,,30,18,,,34,23,,,24*71
$GPGSV,2,2,06,26,,,27,29,,,22*75
$GLGSV,1,1,00*65
$GNGLL,,,,,212712.00,V,N*51
$GNRMC,212713.00,V,,,,,,,260720,,,N*66
$GNVTG,,,,,,,,,N*2E
$GNGGA,212713.00,,,,,0,00,99.99,,,,,,*7C
$GNGSA,A,1,,,,,,,,,,,,,99.99,99.99,99.99*2E
$GNGSA,A,1,,,,,,,,,,,,,99.99,99.99,99.99*2E
$GPGSV,2,1,06,13,,,24,15,,,31,18,,,34,23,,,24*77
$GPGSV,2,2,06,26,,,27,29,,,17*73
$GLGSV,1,1,00*65
$GNGLL,,,,,212713.00,V,N*50
$GNRMC,212714.00,V,,,,,,,260720,,,N*61
$GNVTG,,,,,,,,,N*2E
$GNGGA,212714.00,,,,,0,00,99.99,,,,,,*7B
$GNGSA,A,1,,,,,,,,,,,,,99.99,99.99,99.99*2E
$GNGSA,A,1,,,,,,,,,,,,,99.99,99.99,99.99*2E
$GPGSV,2,1,06,13,,,22,15,,,31,18,,,33,23,,,24*76
$GPGSV,2,2,06,26,,,27,29,,,15*71
$GLGSV,1,1,00*65
$GNGLL,,,,,212714.00,V,N*57
$GNRMC,212715.00,V,,,,,,,260720,,,N*60
$GNVTG,,,,,,,,,N*2E
$GNGGA,212715.00,,,,,0,00,99.99,,,,,,*7A
$GNGSA,A,1,,,,,,,,,,,,,99.99,99.99,99.99*2E
$GNGSA,A,1,,,,,,,,,,,,,99.99,99.99,99.99*2E
$GPGSV,2,1,06,13,,,21,15,,,31,18,,,33,23,,,24*75
$GPGSV,2,2,06,26,,,27,29,,,13*77
$GLGSV,1,1,00*65
$GNGLL,,,,,212715.00,V,N*56
$GNRMC,212716.00,V,,,,,,,260720,,,N*63
$GNVTG,,,,,,,,,N*2E
$GNGGA,212716.00,,,,,0,00,99.99,,,,,,*79
$GNGSA,A,1,,,,,,,,,,,,,99.99,99.99,99.99*2E
$GNGSA,A,1,,,,,,,,,,,,,99.99,99.99,99.99*2E
$GPGSV,2,1,06,13,,,20,15,,,30,18,,,33,23,,,24*75
$GPGSV,2,2,06,26,,,27,29,,,13*77
$GLGSV,1,1,00*65
$GNGLL,,,,,212716.00,V,N*55
$GNRMC,212717.00,V,,,,,,,260720,,,N*62
$GNVTG,,,,,,,,,N*2E
$GNGGA,212717.00,,,,,0,00,99.99,,,,,,*78
$GNGSA,A,1,,,,,,,,,,,,,99.99,99.99,99.99*2E
$GNGSA,A,1,,,,,,,,,,,,,99.99,99.99,99.99*2E
$GPGSV,2,1,06,13,,,21,15,,,30,18,,,33,23,,,24*74
$GPGSV,2,2,06,26,,,27,29,,,13*77
$GLGSV,1,1,00*65
$GNGLL,,,,,212717.00,V,N*54
$GNRMC,212718.00,V,,,,,,,260720,,,N*6D
$GNVTG,,,,,,,,,N*2E
$GNGGA,212718.00,,,,,0,00,99.99,,,,,,*77
$GNGSA,A,1,,,,,,,,,,,,,99.99,99.99,99.99*2E
$GNGSA,A,1,,,,,,,,,,,,,99.99,99.99,99.99*2E
$GPGSV,2,1,06,13,,,20,15,,,30,18,,,33,23,,,24*75
$GPGSV,2,2,06,26,,,27,29,,,16*72
$GLGSV,1,1,00*65
$GNGLL,,,,,212718.00,V,N*5B
$GNRMC,212719.00,V,,,,,,,260720,,,N*6C
$GNVTG,,,,,,,,,N*2E
$GNGGA,212719.00,,,,,0,00,99.99,,,,,,*76
$GNGSA,A,1,,,,,,,,,,,,,99.99,99.99,99.99*2E
$GNGSA,A,1,,,,,,,,,,,,,99.99,99.99,99.99*2E
$GPGSV,2,1,06,13,,,20,15,,,31,18,,,33,23,,,24*74
$GPGSV,2,2,06,26,,,27,29,,,16*72
$GLGSV,1,1,00*65
$GNGLL,,,,,212719.00,V,N*5A
$GNRMC,212720.00,V,,,,,,,260720,,,N*66
$GNVTG,,,,,,,,,N*2E
$GNGGA,212720.00,,,,,0,00,99.99,,,,,,*7C
$GNGSA,A,1,,,,,,,,,,,,,99.99,99.99,99.99*2E
$GNGSA,A,1,,,,,,,,,,,,,99.99,99.99,99.99*2E
$GPGSV,2,1,06,13,,,20,15,,,31,18,,,33,23,,,24*74
$GPGSV,2,2,06,26,,,27,29,,,16*72
$GLGSV,1,1,00*65
$GNGLL,,,,,212720.00,V,N*50
$GNRMC,212721.00,V,,,,,,,260720,,,N*67
$GNVTG,,,,,,,,,N*2E
$GNGGA,212721.00,,,,,0,00,99.99,,,,,,*7D
$GNGSA,A,1,,,,,,,,,,,,,99.99,99.99,99.99*2E
$GNGSA,A,1,,,,,,,,,,,,,99.99,99.99,99.99*2E
$GPGSV,2,1,06,13,,,21,15,,,31,18,,,33,23,,,24*75
$GPGSV,2,2,06,26,,,27,29,,,15*71
$GLGSV,1,1,00*65
$GNGLL,,,,,212721.00,V,N*51
$GNRMC,212722.00,V,,,,,,,260720,,,N*64
$GNVTG,,,,,,,,,N*2E
$GNGGA,212722.00,,,,,0,00,99.99,,,,,,*7E
$GNGSA,A,1,,,,,,,,,,,,,99.99,99.99,99.99*2E
$GNGSA,A,1,,,,,,,,,,,,,99.99,99.99,99.99*2E
$GPGSV,2,1,06,13,,,20,15,,,31,18,,,33,23,,,24*74
$GPGSV,2,2,06,26,,,27,29,,,16*72
$GLGSV,1,1,00*65
$GNGLL,,,,,212722.00,V,N*52
$GNRMC,212723.00,V,,,,,,,260720,,,N*65
$GNVTG,,,,,,,,,N*2E
$GNGGA,212723.00,,,,,0,00,99.99,,,,,,*7F
$GNGSA,A,1,,,,,,,,,,,,,99.99,99.99,99.99*2E
$GNGSA,A,1,,,,,,,,,,,,,99.99,99.99,99.99*2E
$GPGSV,2,1,06,13,,,20,15,,,31,18,,,33,23,,,25*75
$GPGSV,2,2,06,26,,,27,29,,,17*73
$GLGSV,1,1,00*65
$GNGLL,,,,,212723.00,V,N*53
$GNRMC,212724.00,V,,,,,,,260720,,,N*62
$GNVTG,,,,,,,,,N*2E
$GNGGA,212724.00,,,,,0,00,99.99,,,,,,*78
$GNGSA,A,1,,,,,,,,,,,,,99.99,99.99,99.99*2E
$GNGSA,A,1,,,,,,,,,,,,,99.99,99.99,99.99*2E
$GPGSV,2,1,06,13,,,20,15,,,31,18,,,33,23,,,25*75
$GPGSV,2,2,06,26,,,27,29,,,18*7C
$GLGSV,1,1,00*65
$GNGLL,,,,,212724.00,V,N*54
$GNRMC,212725.00,V,,,,,,,260720,,,N*63
$GNVTG,,,,,,,,,N*2E
$GNGGA,212725.00,,,,,0,00,99.99,,,,,,*79
$GNGSA,A,1,,,,,,,,,,,,,99.99,99.99,99.99*2E
$GNGSA,A,1,,,,,,,,,,,,,99.99,99.99,99.99*2E
$GPGSV,2,1,06,13,,,20,15,,,31,18,,,33,23,,,25*75
$GPGSV,2,2,06,26,,,27,29,,,18*7C
$GLGSV,1,1,00*65
$GNGLL,,,,,212725.00,V,N*55
$GNRMC,212726.00,V,,,,,,,260720,,,N*60
$GNVTG,,,,,,,,,N*2E
$GNGGA,212726.00,,,,,0,00,99.99,,,,,,*7A
$GNGSA,A,1,,,,,,,,,,,,,99.99,99.99,99.99*2E
$GNGSA,A,1,,,,,,,,,,,,,99.99,99.99,99.99*2E
$GPGSV,2,1,06,13,,,20,15,,,31,18,,,34,23,,,25*72
$GPGSV,2,2,06,26,,,27,29,,,18*7C
$GLGSV,1,1,00*65
$GNGLL,,,,,212726.00,V,N*56
$GNRMC,212727.00,V,,,,,,,260720,,,N*61
$GNVTG,,,,,,,,,N*2E
$GNGGA,212727.00,,,,,0,00,99.99,,,,,,*7B
$GNGSA,A,1,,,,,,,,,,,,,99.99,99.99,99.99*2E
$GNGSA,A,1,,,,,,,,,,,,,99.99,99.99,99.99*2E
$GPGSV,2,1,06,13,,,20,15,,,31,18,,,34,23,,,25*72
$GPGSV,2,2,06,26,,,27,29,,,18*7C
$GLGSV,1,1,00*65
$GNGLL,,,,,212727.00,V,N*57
$GNRMC,212728.00,V,,,,,,,260720,,,N*6E
$GNVTG,,,,,,,,,N*2E
$GNGGA,212728.00,,,,,0,00,99.99,,,,,,*74
$GNGSA,A,1,,,,,,,,,,,,,99.99,99.99,99.99*2E
$GNGSA,A,1,,,,,,,,,,,,,99.99,99.99,99.99*2E
$GPGSV,2,1,06,13,,,20,15,,,31,18,,,33,23,,,25*75
$GPGSV,2,2,06,26,,,27,29,,,17*73
$GLGSV,1,1,00*65
$GNGLL,,,,,212728.00,V,N*58
$GNRMC,212729.00,V,,,,,,,260720,,,N*6F
$GNVTG,,,,,,,,,N*2E
$GNGGA,212729.00,,,,,0,00,99.99,,,,,,*75
$GNGSA,A,1,,,,,,,,,,,,,99.99,99.99,99.99*2E
$GNGSA,A,1,,,,,,,,,,,,,99.99,99.99,99.99*2E
$GPGSV,2,1,06,13,,,22,15,,,30,18,,,34,23,,,25*71
$GPGSV,2,2,06,26,,,26,29,,,17*72
$GLGSV,1,1,00*65
$GNGLL,,,,,212729.00,V,N*59
$GNRMC,212730.00,V,,,,,,,260720,,,N*67
$GNVTG,,,,,,,,,N*2E
$GNGGA,212730.00,,,,,0,00,99.99,,,,,,*7D
$GNGSA,A,1,,,,,,,,,,,,,99.99,99.99,99.99*2E
$GNGSA,A,1,,,,,,,,,,,,,99.99,99.99,99.99*2E
$GPGSV,2,1,06,13,,,25,15,,,30,18,,,33,23,,,25*71
$GPGSV,2,2,06,26,,,26,29,,,17*72
$GLGSV,1,1,00*65
$GNGLL,,,,,212730.00,V,N*51
$GNRMC,212731.00,V,,,,,,,260720,,,N*66
$GNVTG,,,,,,,,,N*2E
$GNGGA,212731.00,,,,,0,03,2.89,,,,,,*4C
$GNGSA,A,1,15,18,26,,,,,,,,,,3.06,2.89,1.00*10
$GNGSA,A,1,,,,,,,,,,,,,3.06,2.89,1.00*19
$GPGSV,2,1,06,13,,,27,15,44,097,30,18,61,344,33,23,55,235,24*4C
$GPGSV,2,2,06,26,30,275,26,29,,,18*4E
$GLGSV,1,1,00*65
$GNGLL,,,,,212731.00,V,N*50
$GNRMC,212732.00,V,,,,,,,260720,,,N*65
$GNVTG,,,,,,,,,N*2E
$GNGGA,212732.00,,,,,0,03,2.89,,,,,,*4F
$GNGSA,A,1,15,18,26,,,,,,,,,,3.06,2.89,1.00*10
$GNGSA,A,1,,,,,,,,,,,,,3.06,2.89,1.00*19
$GPGSV,2,1,06,13,,,27,15,44,097,30,18,61,344,32,23,55,235,24*4D
$GPGSV,2,2,06,26,30,275,26,29,,,17*41
$GLGSV,1,1,00*65
$GNGLL,,,,,212732.00,V,N*53
$GNRMC,212733.00,A,3352.52569,N,11824.48827,W,0.640,,260720,,,A*7C
$GNVTG,,T,,M,0.640,N,1.185,K,A*32
$GNGGA,212733.00,3352.52569,N,11824.48827,W,1,03,2.89,0.6,M,-33.2,M,,*7A
$GNGSA,A,2,15,18,26,,,,,,,,,,3.06,2.89,1.00*13
$GNGSA,A,2,,,,,,,,,,,,,3.06,2.89,1.00*1A
$GPGSV,2,1,06,13,,,27,15,44,097,30,18,61,344,32,23,55,235,25*4C
$GPGSV,2,2,06,26,30,275,26,29,,,16*40
$GLGSV,1,1,00*65
$GNGLL,3352.52569,N,11824.48827,W,212733.00,A,A*66
$GNRMC,212734.00,A,3352.52573,N,11824.48824,W,2.238,27.81,260720,,,A*58
$GNVTG,27.81,T,,M,2.238,N,4.146,K,A*13
$GNGGA,212734.00,3352.52573,N,11824.48824,W,1,03,2.89,0.4,M,-33.2,M,,*77
$GNGSA,A,2,15,18,26,,,,,,,,,,3.06,2.89,1.00*13
$GNGSA,A,2,,,,,,,,,,,,,3.06,2.89,1.00*1A
$GPGSV,2,1,06,13,,,27,15,44,097,30,18,61,344,32,23,55,235,25*4C
$GPGSV,2,2,06,26,30,275,25,29,,,16*43
$GLGSV,1,1,00*65
$GNGLL,3352.52573,N,11824.48824,W,212734.00,A,A*69
$GNRMC,212735.00,A,3352.52582,N,11824.48834,W,0.363,,260720,,,A*79
$GNVTG,,T,,M,0.363,N,0.672,K,A*38
$GNGGA,212735.00,3352.52582,N,11824.48834,W,1,03,2.89,1.4,M,-33.2,M,,*78
$GNGSA,A,2,15,18,26,,,,,,,,,,3.06,2.89,1.00*13
$GNGSA,A,2,,,,,,,,,,,,,3.06,2.89,1.00*1A
$GPGSV,2,1,07,13,,,27,15,44,097,30,18,61,344,31,23,55,235,25*4E
$GPGSV,2,2,07,26,30,275,27,29,,,16,46,45,146,32*71
$GLGSV,1,1,00*65
$GNGLL,3352.52582,N,11824.48834,W,212735.00,A,A*67
$GNRMC,212736.00,A,3352.52525,N,11824.48859,W,0.554,,260720,,,A*7E
$GNVTG,,T,,M,0.554,N,1.027,K,A*3D
$GNGGA,212736.00,3352.52525,N,11824.48859,W,1,03,2.89,0.7,M,-33.2,M,,*7F
$GNGSA,A,2,15,18,26,,,,,,,,,,3.06,2.89,1.00*13
$GNGSA,A,2,,,,,,,,,,,,,3.06,2.89,1.00*1A
$GPGSV,2,1,07,13,,,27,15,44,097,30,18,61,344,30,23,55,235,25*4F
$GPGSV,2,2,07,26,30,275,27,29,,,17,46,45,146,31*73
$GLGSV,1,1,00*65
$GNGLL,3352.52525,N,11824.48859,W,212736.00,A,A*62
$GNRMC,212737.00,A,3352.52504,N,11824.48861,W,0.376,,260720,,,A*71
$GNVTG,,T,,M,0.376,N,0.696,K,A*36
$GNGGA,212737.00,3352.52504,N,11824.48861,W,1,03,2.89,-0.8,M,-33.2,M,,*54
$GNGSA,A,2,15,18,26,,,,,,,,,,3.06,2.89,1.00*13
$GNGSA,A,2,,,,,,,,,,,,,3.06,2.89,1.00*1A
$GPGSV,2,1,07,13,,,26,15,44,097,31,18,61,344,31,23,55,235,24*4F
$GPGSV,2,2,07,26,30,275,28,29,,,17,46,45,146,31*7C
$GLGSV,1,1,00*65
$GNGLL,3352.52504,N,11824.48861,W,212737.00,A,A*6B
$GNRMC,212738.00,A,3352.52491,N,11824.48846,W,0.272,,260720,,,A*73
$GNVTG,,T,,M,0.272,N,0.504,K,A*3B
$GNGGA,212738.00,3352.52491,N,11824.48846,W,1,03,2.89,0.0,M,-33.2,M,,*76
$GNGSA,A,2,15,18,26,,,,,,,,,,3.06,2.89,1.00*13
$GNGSA,A,2,,,,,,,,,,,,,3.06,2.89,1.00*1A
$GPGSV,2,1,07,13,,,26,15,44,097,31,18,61,344,32,23,55,235,24*4C
$GPGSV,2,2,07,26,30,275,28,29,,,20,46,45,146,31*78
$GLGSV,1,1,00*65
$GNGLL,3352.52491,N,11824.48846,W,212738.00,A,A*6C
$GNRMC,212739.00,A,3352.52523,N,11824.48857,W,0.558,,260720,,,A*75
$GNVTG,,T,,M,0.558,N,1.033,K,A*34
$GNGGA,212739.00,3352.52523,N,11824.48857,W,1,03,2.89,0.8,M,-33.2,M,,*77
$GNGSA,A,2,15,18,26,,,,,,,,,,3.06,2.89,1.00*13
$GNGSA,A,2,,,,,,,,,,,,,3.06,2.89,1.00*1A
$GPGSV,2,1,07,13,,,27,15,44,097,30,18,61,344,32,23,55,235,25*4D
$GPGSV,2,2,07,26,30,275,28,29,,,18,46,45,146,31*73
$GLGSV,1,1,00*65
$GNGLL,3352.52523,N,11824.48857,W,212739.00,A,A*65
$GNRMC,212740.00,A,3352.52546,N,11824.48866,W,0.655,,260720,,,A*74
$GNVTG,,T,,M,0.655,N,1.212,K,A*3B
$GNGGA,212740.00,3352.52546,N,11824.48866,W,1,03,2.89,-0.4,M,-33.2,M,,*59
$GNGSA,A,2,15,18,26,,,,,,,,,,3.06,2.89,1.00*13
$GNGSA,A,2,,,,,,,,,,,,,3.06,2.89,1.00*1A
$GPGSV,2,1,07,13,,,27,15,44,097,30,18,61,344,33,23,55,235,24*4D
$GPGSV,2,2,07,26,30,275,28,29,,,17,46,45,146,31*7C
$GLGSV,1,1,00*65
$GNGLL,3352.52546,N,11824.48866,W,212740.00,A,A*6A
$GNRMC,212741.00,A,3352.52549,N,11824.48864,W,0.239,,260720,,,A*76
$GNVTG,,T,,M,0.239,N,0.442,K,A*37
$GNGGA,212741.00,3352.52549,N,11824.48864,W,1,03,2.89,-2.0,M,-33.2,M,,*53
$GNGSA,A,2,15,18,26,,,,,,,,,,3.06,2.89,1.00*13
$GNGSA,A,2,,,,,,,,,,,,,3.06,2.89,1.00*1A
$GPGSV,2,1,07,13,,,27,15,44,097,31,18,61,344,33,23,55,235,23*4B
$GPGSV,2,2,07,26,30,275,28,29,,,15,46,45,146,31*7E
$GLGSV,1,1,00*65
$GNGLL,3352.52549,N,11824.48864,W,212741.00,A,A*66
$GNRMC,212742.00,A,3352.52555,N,11824.48880,W,0.885,,260720,,,A*7F
$GNVTG,,T,,M,0.885,N,1.639,K,A*35
$GNGGA,212742.00,3352.52555,N,11824.48880,W,1,03,2.89,-1.0,M,-33.2,M,,*54
$GNGSA,A,2,15,18,26,,,,,,,,,,3.06,2.89,1.00*13
$GNGSA,A,2,,,,,,,,,,,,,3.06,2.89,1.00*1A
$GPGSV,2,1,07,13,,,28,15,44,097,30,18,61,344,33,23,55,235,23*45
$GPGSV,2,2,07,26,30,275,28,29,,,13,46,45,146,31*78
$GLGSV,1,1,00*65
$GNGLL,3352.52555,N,11824.48880,W,212742.00,A,A*62
$GNRMC,212743.00,A,3352.52590,N,11824.48885,W,0.435,,260720,,,A*75
$GNVTG,,T,,M,0.435,N,0.806,K,A*31
$GNGGA,212743.00,3352.52590,N,11824.48885,W,1,03,2.89,-1.7,M,-33.2,M,,*5E
$GNGSA,A,2,15,18,26,,,,,,,,,,3.05,2.89,1.00*10
$GNGSA,A,2,,,,,,,,,,,,,3.05,2.89,1.00*19
$GPGSV,2,1,07,13,,,27,15,44,097,31,18,61,344,33,23,55,235,22*4A
$GPGSV,2,2,07,26,30,275,29,29,,,14,46,45,146,31*7E
$GLGSV,1,1,00*65
$GNGLL,3352.52590,N,11824.48885,W,212743.00,A,A*6F
$GNRMC,212744.00,A,3352.52614,N,11824.48867,W,0.118,,260720,,,A*7B
$GNVTG,,T,,M,0.118,N,0.218,K,A*3E
$GNGGA,212744.00,3352.52614,N,11824.48867,W,1,03,2.89,-0.3,M,-33.2,M,,*5F
$GNGSA,A,2,15,18,26,,,,,,,,,,3.05,2.89,1.00*10
$GNGSA,A,2,,,,,,,,,,,,,3.05,2.89,1.00*19
$GPGSV,2,1,07,13,,,26,15,44,097,30,18,61,344,32,23,55,235,23*4A
$GPGSV,2,2,07,26,30,275,29,29,,,15,46,45,146,31*7F
$GLGSV,1,1,00*65
$GNGLL,3352.52614,N,11824.48867,W,212744.00,A,A*6B
$GNRMC,212745.00,A,3352.52614,N,11824.48857,W,0.176,,260720,,,A*71
$GNVTG,,T,,M,0.176,N,0.326,K,A*3A
$GNGGA,212745.00,3352.52614,N,11824.48857,W,1,03,2.89,0.4,M,-33.2,M,,*77
$GNGSA,A,2,15,18,26,,,,,,,,,,3.05,2.89,1.00*10
$GNGSA,A,2,,,,,,,,,,,,,3.05,2.89,1.00*19
$GPGSV,2,1,07,13,,,26,15,44,097,31,18,61,344,32,23,55,235,24*4C
$GPGSV,2,2,07,26,30,275,28,29,,,16,46,45,146,32*7E
$GLGSV,1,1,00*65
$GNGLL,3352.52614,N,11824.48857,W,212745.00,A,A*69
$GNRMC,212746.00,A,3352.52626,N,11824.48846,W,0.679,,260720,,,A*7B
$GNVTG,,T,,M,0.679,N,1.258,K,A*3B
$GNGGA,212746.00,3352.52626,N,11824.48846,W,1,03,2.89,-0.6,M,-33.2,M,,*5A
$GNGSA,A,2,15,18,26,,,,,,,,,,3.05,2.89,1.00*10
$GNGSA,A,2,,,,,,,,,,,,,3.05,2.89,1.00*19
$GPGSV,2,1,07,13,,,26,15,44,097,31,18,61,344,32,23,55,235,25*4D
$GPGSV,2,2,07,26,30,275,28,29,,,17,46,45,146,31*7C
$GLGSV,1,1,00*65
$GNGLL,3352.52626,N,11824.48846,W,212746.00,A,A*6B
$GNRMC,212747.00,A,3352.52611,N,11824.48859,W,0.105,,260720,,,A*7C
$GNVTG,,T,,M,0.105,N,0.194,K,A*35
$GNGGA,212747.00,3352.52611,N,11824.48859,W,1,03,2.89,1.0,M,-33.2,M,,*7B
$GNGSA,A,2,15,18,26,,,,,,,,,,3.05,2.89,1.00*10
$GNGSA,A,2,,,,,,,,,,,,,3.05,2.89,1.00*19
$GPGSV,2,1,07,13,,,25,15,44,097,31,18,61,344,32,23,55,235,25*4E
$GPGSV,2,2,07,26,30,275,28,29,,,16,46,45,146,31*7D
$GLGSV,1,1,00*65
$GNGLL,3352.52611,N,11824.48859,W,212747.00,A,A*60
$GNRMC,212748.00,A,3352.52606,N,11824.48842,W,0.107,,260720,,,A*7D
$GNVTG,,T,,M,0.107,N,0.199,K,A*3A
$GNGGA,212748.00,3352.52606,N,11824.48842,W,1,03,2.89,1.7,M,-33.2,M,,*7F
$GNGSA,A,2,15,18,26,,,,,,,,,,3.05,2.89,1.00*10
$GNGSA,A,2,,,,,,,,,,,,,3.05,2.89,1.00*19
$GPGSV,2,1,07,13,,,25,15,44,097,31,18,61,344,31,23,55,235,26*4E
$GPGSV,2,2,07,26,30,275,28,29,,,15,46,45,146,32*7D
$GLGSV,1,1,00*65
$GNGLL,3352.52606,N,11824.48842,W,212748.00,A,A*63
$GNRMC,212749.00,A,3352.52601,N,11824.48844,W,0.280,,260720,,,A*71
$GNVTG,,T,,M,0.280,N,0.519,K,A*3A
$GNGGA,212749.00,3352.52601,N,11824.48844,W,1,03,2.89,0.6,M,-33.2,M,,*7F
$GNGSA,A,2,15,18,26,,,,,,,,,,3.05,2.89,1.00*10
$GNGSA,A,2,,,,,,,,,,,,,3.05,2.89,1.00*19
$GPGSV,2,1,07,13,,,26,15,44,097,31,18,61,344,31,23,55,235,25*4E
$GPGSV,2,2,07,26,30,275,28,29,,,17,46,45,146,31*7C
$GLGSV,1,1,00*65
$GNGLL,3352.52601,N,11824.48844,W,212749.00,A,A*63
$GNRMC,212750.00,A,3352.52603,N,11824.48829,W,0.279,,260720,,,A*76
$GNVTG,,T,,M,0.279,N,0.517,K,A*32
$GNGGA,212750.00,3352.52603,N,11824.48829,W,1,03,2.88,-0.7,M,-33.2,M,,*53
$GNGSA,A,2,15,18,26,,,,,,,,,,3.05,2.88,1.00*11
$GNGSA,A,2,,,,,,,,,,,,,3.05,2.88,1.00*18
$GPGSV,2,1,07,13,,,26,15,44,097,31,18,61,344,31,23,55,235,25*4E
$GPGSV,2,2,07,26,30,275,28,29,,,18,46,45,146,31*73
$GLGSV,1,1,00*65
$GNGLL,3352.52603,N,11824.48829,W,212750.00,A,A*62
$GNRMC,212751.00,A,3352.52594,N,11824.48826,W,0.284,,260720,,,A*77
$GNVTG,,T,,M,0.284,N,0.527,K,A*33
$GNGGA,212751.00,3352.52594,N,11824.48826,W,1,03,2.88,0.2,M,-33.2,M,,*78
$GNGSA,A,2,15,18,26,,,,,,,,,,3.05,2.88,1.00*11
$GNGSA,A,2,,,,,,,,,,,,,3.05,2.88,1.00*18
$GPGSV,2,1,07,13,,,27,15,44,097,31,18,61,344,32,23,55,235,25*4C
$GPGSV,2,2,07,26,30,275,28,29,,,19,46,45,146,31*72
$GLGSV,1,1,00*65
$GNGLL,3352.52594,N,11824.48826,W,212751.00,A,A*61
$GNRMC,212752.00,A,3352.52594,N,11824.48828,W,0.330,,260720,,,A*74
$GNVTG,,T,,M,0.330,N,0.611,K,A*3B
$GNGGA,212752.00,3352.52594,N,11824.48828,W,1,03,2.88,-0.4,M,-33.2,M,,*5E
$GNGSA,A,2,15,18,26,,,,,,,,,,3.05,2.88,1.00*11
$GNGSA,A,2,,,,,,,,,,,,,3.05,2.88,1.00*18
$GPGSV,2,1,07,13,,,26,15,44,097,31,18,61,344,32,23,55,235,24*4C
$GPGSV,2,2,07,26,30,275,26,29,,,18,46,45,146,31*7D
$GLGSV,1,1,00*65
$GNGLL,3352.52594,N,11824.48828,W,212752.00,A,A*6C
$GNRMC,212753.00,A,3352.52587,N,11824.48828,W,0.472,,260720,,,A*76
$GNVTG,,T,,M,0.472,N,0.875,K,A*36
$GNGGA,212753.00,3352.52587,N,11824.48828,W,1,03,2.88,1.2,M,-33.2,M,,*77
$GNGSA,A,2,15,18,26,,,,,,,,,,3.05,2.88,1.00*11
$GNGSA,A,2,,,,,,,,,,,,,3.05,2.88,1.00*18
$GPGSV,2,1,07,13,,,26,15,44,097,31,18,61,344,32,23,55,235,24*4C
$GPGSV,2,2,07,26,30,275,24,29,,,18,46,45,146,31*7F
$GLGSV,1,1,00*65
$GNGLL,3352.52587,N,11824.48828,W,212753.00,A,A*6F
$GNRMC,212754.00,A,3352.52591,N,11824.48819,W,0.334,,260720,,,A*71
$GNVTG,,T,,M,0.334,N,0.619,K,A*37
$GNGGA,212754.00,3352.52591,N,11824.48819,W,1,03,2.88,0.8,M,-33.2,M,,*7E
$GNGSA,A,2,15,18,26,,,,,,,,,,3.05,2.88,1.00*11
$GNGSA,A,2,,,,,,,,,,,,,3.05,2.88,1.00*18
$GPGSV,2,1,07,13,,,26,15,44,097,31,18,61,344,32,23,55,235,24*4C
$GPGSV,2,2,07,26,30,275,25,29,,,19,46,45,146,31*7F
$GLGSV,1,1,00*65
$GNGLL,3352.52591,N,11824.48819,W,212754.00,A,A*6D
$GNRMC,212755.00,A,3352.52596,N,11824.48809,W,0.417,,260720,,,A*70
$GNVTG,,T,,M,0.417,N,0.772,K,A*3D
$GNGGA,212755.00,3352.52596,N,11824.48809,W,1,03,2.88,0.7,M,-33.2,M,,*76
$GNGSA,A,2,15,18,26,,,,,,,,,,3.05,2.88,1.00*11
$GNGSA,A,2,,,,,,,,,,,,,3.05,2.88,1.00*18
$GPGSV,2,1,07,13,,,27,15,44,096,30,18,61,344,32,23,55,235,24*4D
$GPGSV,2,2,07,26,30,275,24,29,,,20,46,45,146,31*74
$GLGSV,1,1,00*65
$GNGLL,3352.52596,N,11824.48809,W,212755.00,A,A*6A
$GNRMC,212756.00,A,3352.52593,N,11824.48792,W,2.022,27.90,260720,,,A*59
$GNVTG,27.90,T,,M,2.022,N,3.745,K,A*18
$GNGGA,212756.00,3352.52593,N,11824.48792,W,1,03,2.88,1.0,M,-33.2,M,,*7B
$GNGSA,A,2,15,18,26,,,,,,,,,,3.05,2.88,1.00*11
$GNGSA,A,2,,,,,,,,,,,,,3.05,2.88,1.00*18
$GPGSV,2,1,07,13,,,27,15,44,096,30,18,61,344,32,23,55,235,25*4C
$GPGSV,2,2,07,26,30,275,25,29,,,20,46,45,146,31*75
$GLGSV,1,1,00*65
$GNGLL,3352.52593,N,11824.48792,W,212756.00,A,A*61
$GNRMC,212757.00,A,3352.52569,N,11824.48810,W,0.486,,260720,,,A*72
$GNVTG,,T,,M,0.486,N,0.900,K,A*3E
$GNGGA,212757.00,3352.52569,N,11824.48810,W,1,03,2.88,1.4,M,-33.2,M,,*7E
$GNGSA,A,2,15,18,26,,,,,,,,,,3.05,2.88,1.00*11
$GNGSA,A,2,,,,,,,,,,,,,3.05,2.88,1.00*18
$GPGSV,2,1,08,13,,,26,15,44,096,31,16,,,30,18,61,344,32*75
$GPGSV,2,2,08,23,55,235,26,26,30,275,26,29,,,21,46,45,146,31*49
$GLGSV,1,1,00*65
$GNGLL,3352.52569,N,11824.48810,W,212757.00,A,A*60
$GNRMC,212758.00,A,3352.52568,N,11824.48812,W,0.830,,260720,,,A*7F
$GNVTG,,T,,M,0.830,N,1.538,K,A*39
$GNGGA,212758.00,3352.52568,N,11824.48812,W,1,03,2.88,-0.3,M,-33.2,M,,*59
$GNGSA,A,2,15,18,26,,,,,,,,,,3.05,2.88,1.00*11
$GNGSA,A,2,,,,,,,,,,,,,3.05,2.88,1.00*18
$GPGSV,2,1,08,13,,,26,15,44,096,31,16,,,21,18,61,344,31*76
$GPGSV,2,2,08,23,55,235,26,26,30,275,26,29,,,21,46,45,146,31*49
$GLGSV,1,1,00*65
$GNGLL,3352.52568,N,11824.48812,W,212758.00,A,A*6C
$GNRMC,212759.00,A,3352.52545,N,11824.48823,W,1.057,,260720,,,A*7B
$GNVTG,,T,,M,1.057,N,1.958,K,A*3B
$GNGGA,212759.00,3352.52545,N,11824.48823,W,1,03,2.88,-0.9,M,-33.2,M,,*5F
$GNGSA,A,2,15,18,26,,,,,,,,,,3.05,2.88,1.00*11
$GNGSA,A,2,,,,,,,,,,,,,3.05,2.88,1.00*18
$GPGSV,2,1,08,13,,,25,15,44,096,30,16,,,24,18,61,344,31*71
$GPGSV,2,2,08,23,55,235,25,26,30,275,23,29,,,30,46,45,146,31*4F
$GLGSV,1,1,00*65
$GNGLL,3352.52545,N,11824.48823,W,212759.00,A,A*60
$GNRMC,212800.00,A,3352.52552,N,11824.48812,W,0.638,,260720,,,A*72
$GNVTG,,T,,M,0.638,N,1.182,K,A*3A
$GNGGA,212800.00,3352.52552,N,11824.48812,W,1,03,2.88,0.6,M,-33.2,M,,*7A
$GNGSA,A,2,15,18,26,,,,,,,,,,3.05,2.88,1.00*11
$GNGSA,A,2,,,,,,,,,,,,,3.05,2.88,1.00*18
$GPGSV,2,1,08,13,,,27,15,44,096,29,16,,,25,18,61,344,32*79
$GPGSV,2,2,08,23,55,235,24,26,30,275,20,29,,,29,46,45,146,31*45
$GLGSV,1,1,00*65
$GNGLL,3352.52552,N,11824.48812,W,212800.00,A,A*67
$GNRMC,212801.00,A,3352.52521,N,11824.48839,W,0.975,,260720,,,A*78
$GNVTG,,T,,M,0.975,N,1.805,K,A*3A
$GNGGA,212801.00,3352.52521,N,11824.48839,W,1,03,2.88,0.6,M,-33.2,M,,*76
$GNGSA,A,2,15,18,26,,,,,,,,,,3.05,2.88,1.00*11
$GNGSA,A,2,,,,,,,,,,,,,3.05,2.88,1.00*18
$GPGSV,2,1,08,13,,,28,15,44,096,27,16,,,25,18,61,344,32*78
$GPGSV,2,2,08,23,55,235,22,26,30,275,17,29,,,28,46,45,146,30*47
$GLGSV,1,1,00*65
$GNGLL,3352.52521,N,11824.48839,W,212801.00,A,A*6B
$GNRMC,212802.00,A,3352.52492,N,11824.48856,W,1.076,,260720,,,A*70
$GNVTG,,T,,M,1.076,N,1.992,K,A*3E
$GNGGA,212802.00,3352.52492,N,11824.48856,W,1,03,2.88,0.0,M,-33.2,M,,*73
$GNGSA,A,2,15,18,26,,,,,,,,,,3.05,2.88,1.00*11
$GNGSA,A,2,,,,,,,,,,,,,3.05,2.88,1.00*18
$GPGSV,2,1,08,13,,,29,15,44,096,27,16,,,25,18,61,344,32*79
$GPGSV,2,2,08,23,55,235,22,26,30,275,17,29,,,27,46,45,146,31*49
$GLGSV,1,1,00*65
$GNGLL,3352.52492,N,11824.48856,W,212802.00,A,A*68
$GNRMC,212803.00,A,3352.52469,N,11824.48860,W,0.533,,260720,,,A*75
$GNVTG,,T,,M,0.533,N,0.988,K,A*31
$GNGGA,212803.00,3352.52469,N,11824.48860,W,1,03,2.88,-1.9,M,-33.2,M,,*56
$GNGSA,A,2,15,18,26,,,,,,,,,,3.05,2.88,1.00*11
$GNGSA,A,2,,,,,,,,,,,,,3.05,2.88,1.00*18
$GPGSV,3,1,09,13,,,28,15,44,096,27,16,,,25,18,61,344,32*78
$GPGSV,3,2,09,21,,,24,23,55,235,22,26,30,275,17,29,,,27*7E
$GPGSV,3,3,09,46,45,146,31*42
$GLGSV,1,1,00*65
$GNGLL,3352.52469,N,11824.48860,W,212803.00,A,A*68
$GNRMC,212804.00,A,3352.52520,N,11824.48820,W,1.093,,260720,,,A*74
$GNVTG,,T,,M,1.093,N,2.025,K,A*33
$GNGGA,212804.00,3352.52520,N,11824.48820,W,1,03,2.88,-0.6,M,-33.2,M,,*57
$GNGSA,A,2,15,18,26,,,,,,,,,,3.05,2.88,1.00*11
$GNGSA,A,2,,,,,,,,,,,,,3.05,2.88,1.00*18
$GPGSV,3,1,09,13,,,28,15,44,096,26,16,,,26,18,61,344,32*7A
$GPGSV,3,2,09,21,,,24,23,55,235,21,26,30,275,17,29,,,28*72
$GPGSV,3,3,09,46,45,146,31*42
$GLGSV,1,1,00*65
$GNGLL,3352.52520,N,11824.48820,W,212804.00,A,A*67
$GNRMC,212805.00,A,3352.52461,N,11824.48860,W,0.703,,260720,,,A*7A
$GNVTG,,T,,M,0.703,N,1.302,K,A*39
$GNGGA,212805.00,3352.52461,N,11824.48860,W,1,03,2.88,0.0,M,-33.2,M,,*7D
$GNGSA,A,2,15,18,26,,,,,,,,,,3.05,2.88,1.00*11
$GNGSA,A,2,,,,,,,,,,,,,3.05,2.88,1.00*18
$GPGSV,3,1,09,13,,,28,15,44,096,26,16,,,27,18,61,344,32*7B
$GPGSV,3,2,09,21,,,23,23,55,235,20,26,30,275,17,29,,,28*74
$GPGSV,3,3,09,46,45,146,31*42
$GLGSV,1,1,00*65
$GNGLL,3352.52461,N,11824.48860,W,212805.00,A,A*66
$GNRMC,212806.00,A,3352.52483,N,11824.48855,W,0.684,,260720,,,A*7D
$GNVTG,,T,,M,0.684,N,1.268,K,A*3A
$GNGGA,212806.00,3352.52483,N,11824.48855,W,1,03,2.88,-0.7,M,-33.2,M,,*5E
$GNGSA,A,2,15,18,26,,,,,,,,,,3.05,2.88,1.00*11
$GNGSA,A,2,,,,,,,,,,,,,3.05,2.88,1.00*18
$GPGSV,3,1,09,13,,,28,15,44,096,26,16,,,27,18,61,344,31*78
$GPGSV,3,2,09,21,,,24,23,55,235,21,26,30,275,17,29,,,28*72
$GPGSV,3,3,09,46,45,146,31*42
$GLGSV,1,1,00*65
$GNGLL,3352.52483,N,11824.48855,W,212806.00,A,A*6F
$GNRMC,212807.00,A,3352.52452,N,11824.48874,W,0.916,,260720,,,A*77
$GNVTG,,T,,M,0.916,N,1.697,K,A*3A
$GNGGA,212807.00,3352.52452,N,11824.48874,W,1,03,2.88,-2.9,M,-33.2,M,,*5C
$GNGSA,A,2,15,18,26,,,,,,,,,,3.05,2.88,1.00*11
$GNGSA,A,2,,,,,,,,,,,,,3.05,2.88,1.00*18
$GPGSV,3,1,09,13,,,28,15,44,096,26,16,,,26,18,61,344,31*79
$GPGSV,3,2,09,21,,,24,23,55,235,21,26,30,275,17,29,,,28*72
$GPGSV,3,3,09,46,45,146,30*43
$GLGSV,1,1,00*65
$GNGLL,3352.52452,N,11824.48874,W,212807.00,A,A*61
$GNRMC,212808.00,A,3352.52399,N,11824.48922,W,2.564,,260720,,,A*71
$GNVTG,,T,,M,2.564,N,4.749,K,A*36
$GNGGA,212808.00,3352.52399,N,11824.48922,W,1,03,2.88,0.6,M,-33.2,M,,*71
$GNGSA,A,2,15,18,26,,,,,,,,,,3.05,2.88,1.00*11
$GNGSA,A,2,,,,,,,,,,,,,3.05,2.88,1.00*18
$GPGSV,3,1,10,13,,,28,15,44,096,26,16,,,26,18,61,344,32*72
$GPGSV,3,2,10,21,,,23,23,55,235,21,25,08,184,,26,30,275,16*4F
$GPGSV,3,3,10,29,,,28,46,45,146,31*4B
$GLGSV,1,1,00*65
$GNGLL,3352.52399,N,11824.48922,W,212808.00,A,A*6C
$GNRMC,212809.00,A,3352.52375,N,11824.48924,W,3.640,,260720,,,A*70
$GNVTG,,T,,M,3.640,N,6.741,K,A*38
$GNGGA,212809.00,3352.52375,N,11824.48924,W,1,03,2.88,-0.9,M,-33.2,M,,*56
$GNGSA,A,2,15,18,26,,,,,,,,,,3.05,2.88,1.00*11
$GNGSA,A,2,,,,,,,,,,,,,3.05,2.88,1.00*18
$GPGSV,3,1,11,13,,,27,15,44,096,26,16,,,25,18,61,344,32*7F
$GPGSV,3,2,11,21,,,23,23,55,235,21,25,08,184,,26,30,275,15*4D
$GPGSV,3,3,11,29,,,28,46,45,146,31,51,49,161,31*77
$GLGSV,1,1,00*65
$GNGLL,3352.52375,N,11824.48924,W,212809.00,A,A*69
$GNRMC,212810.00,V,,,,,,,260720,,,N*6A
$GNVTG,,,,,,,,,N*2E
$GNGGA,212810.00,,,,,0,00,99.99,,,,,,*70
$GNGSA,A,1,,,,,,,,,,,,,99.99,99.99,99.99*2E
$GNGSA,A,1,,,,,,,,,,,,,99.99,99.99,99.99*2E
$GPGSV,3,1,11,13,,,27,15,44,096,26,16,,,25,18,61,344,32*7F
$GPGSV,3,2,11,21,,,23,23,55,235,21,25,08,184,,26,30,275,14*4C
$GPGSV,3,3,11,29,,,28,46,45,146,31,51,49,161,31*77
$GLGSV,1,1,00*65
$GNGLL,,,,,212810.00,V,N*5C
$GNRMC,212811.00,V,,,,,,,260720,,,N*6B
$GNVTG,,,,,,,,,N*2E
$GNGGA,212811.00,,,,,0,00,99.99,,,,,,*71
$GNGSA,A,1,,,,,,,,,,,,,99.99,99.99,99.99*2E
$GNGSA,A,1,,,,,,,,,,,,,99.99,99.99,99.99*2E
$GPGSV,3,1,11,13,,,27,15,44,096,26,16,,,24,18,61,344,32*7E
$GPGSV,3,2,11,21,,,23,23,55,235,21,25,08,184,21,26,30,275,12*49
$GPGSV,3,3,11,29,,,28,46,45,146,31,51,49,161,31*77
$GLGSV,1,1,00*65
$GNGLL,,,,,212811.00,V,N*5D
$GNRMC,212812.00,V,,,,,,,260720,,,N*68
$GNVTG,,,,,,,,,N*2E
$GNGGA,212812.00,,,,,0,00,99.99,,,,,,*72
$GNGSA,A,1,,,,,,,,,,,,,99.99,99.99,99.99*2E
$GNGSA,A,1,,,,,,,,,,,,,99.99,99.99,99.99*2E
$GPGSV,3,1,11,13,,,27,15,44,096,26,16,,,25,18,61,344,32*7F
$GPGSV,3,2,11,21,,,23,23,55,235,21,25,08,184,20,26,30,275,13*49
$GPGSV,3,3,11,29,,,27,46,45,146,31,51,49,161,31*78
$GLGSV,1,1,00*65
$GNGLL,,,,,212812.00,V,N*5E
$GNRMC,212813.00,V,,,,,,,260720,,,N*69
$GNVTG,,,,,,,,,N*2E
$GNGGA,212813.00,,,,,0,00,99.99,,,,,,*73
$GNGSA,A,1,,,,,,,,,,,,,99.99,99.99,99.99*2E
$GNGSA,A,1,,,,,,,,,,,,,99.99,99.99,99.99*2E
$GPGSV,3,1,11,13,,,28,15,44,096,25,16,,,25,18,61,344,32*73
$GPGSV,3,2,11,21,,,23,23,55,235,22,25,08,184,19,26,30,275,12*41
$GPGSV,3,3,11,29,,,26,46,45,146,31,51,49,161,31*79
$GLGSV,1,1,00*65
$GNGLL,,,,,212813.00,V,N*5F
$GNRMC,212814.00,V,,,,,,,260720,,,N*6E
$GNVTG,,,,,,,,,N*2E
$GNGGA,212814.00,,,,,0,00,99.99,,,,,,*74
$GNGSA,A,1,,,,,,,,,,,,,99.99,99.99,99.99*2E
$GNGSA,A,1,,,,,,,,,,,,,99.99,99.99,99.99*2E
$GPGSV,3,1,11,13,,,28,15,44,096,26,16,,,26,18,61,344,32*73
$GPGSV,3,2,11,21,,,23,23,55,235,22,25,08,184,18,26,30,275,11*43
$GPGSV,3,3,11,29,,,26,46,45,146,31,51,49,161,31*79
$GLGSV,1,1,00*65
$GNGLL,,,,,212814.00,V,N*58
$GNRMC,212815.00,V,,,,,,,260720,,,N*6F
$GNVTG,,,,,,,,,N*2E
$GNGGA,212815.00,,,,,0,00,99.99,,,,,,*75
$GNGSA,A,1,,,,,,,,,,,,,99.99,99.99,99.99*2E
$GNGSA,A,1,,,,,,,,,,,,,99.99,99.99,99.99*2E
$GPGSV,3,1,11,13,,,28,15,44,096,26,16,,,26,18,61,344,32*73
$GPGSV,3,2,11,21,,,24,23,55,235,21,25,08,184,18,26,30,275,09*4E
$GPGSV,3,3,11,29,,,26,46,45,146,31,51,49,161,31*79
$GLGSV,1,1,00*65
$GNGLL,,,,,212815.00,V,N*59
$GNRMC,212816.00,A,3352.51863,N,11824.49185,W,2.358,,260720,,,A*7E
$GNVTG,,T,,M,2.358,N,4.366,K,A*36
$GNGGA,212816.00,3352.51863,N,11824.49185,W,1,03,2.88,-1.0,M,-33.2,M,,*5D
$GNGSA,A,2,15,18,26,,,,,,,,,,3.05,2.88,1.00*11
$GNGSA,A,2,,,,,,,,,,,,,3.05,2.88,1.00*18
$GPGSV,3,1,11,13,,,28,15,44,096,26,16,,,26,18,61,344,32*73
$GPGSV,3,2,11,21,,,24,23,55,235,21,25,08,184,18,26,30,275,11*47
$GPGSV,3,3,11,29,,,27,46,45,146,32,51,49,161,31*7B
$GLGSV,1,1,00*65
$GNGLL,3352.51863,N,11824.49185,W,212816.00,A,A*6A
$GNRMC,212817.00,A,3352.51938,N,11824.49107,W,1.556,,260720,,,A*71
$GNVTG,,T,,M,1.556,N,2.882,K,A*3A
$GNGGA,212817.00,3352.51938,N,11824.49107,W,1,03,2.88,-0.4,M,-33.2,M,,*5C
$GNGSA,A,2,15,18,26,,,,,,,,,,3.05,2.88,1.00*11
$GNGSA,A,2,,,,,,,,,,,,,3.05,2.88,1.00*18
$GPGSV,3,1,11,13,,,28,15,44,096,26,16,,,26,18,61,344,33*72
$GPGSV,3,2,11,21,,,25,23,55,235,22,25,08,184,20,26,30,275,14*4B
$GPGSV,3,3,11,29,,,27,46,45,146,30,51,49,161,30*78
$GLGSV,1,1,00*65
$GNGLL,3352.51938,N,11824.49107,W,212817.00,A,A*6E
$GNRMC,212818.00,A,3352.52151,N,11824.48948,W,0.682,,260720,,,A*73
$GNVTG,,T,,M,0.682,N,1.262,K,A*36
$GNGGA,212818.00,3352.52151,N,11824.48948,W,1,03,2.88,-0.3,M,-33.2,M,,*52
$GNGSA,A,2,15,18,26,,,,,,,,,,3.05,2.88,1.00*11
$GNGSA,A,2,,,,,,,,,,,,,3.05,2.88,1.00*18
$GPGSV,3,1,11,13,,,28,15,44,096,26,16,,,27,18,61,344,33*73
$GPGSV,3,2,11,21,,,25,23,55,235,22,25,08,184,20,26,30,275,16*49
$GPGSV,3,3,11,29,,,26,46,45,146,29,51,49,161,30*71
$GLGSV,1,1,00*65
$GNGLL,3352.52151,N,11824.48948,W,212818.00,A,A*67
$GNRMC,212819.00,A,3352.52382,N,11824.48801,W,0.745,,260720,,,A*78
$GNVTG,,T,,M,0.745,N,1.380,K,A*31
$GNGGA,212819.00,3352.52382,N,11824.48801,W,1,03,2.88,-0.2,M,-33.2,M,,*52
$GNGSA,A,2,15,18,26,,,,,,,,,,3.05,2.88,1.00*11
$GNGSA,A,2,,,,,,,,,,,,,3.05,2.88,1.00*18
$GPGSV,3,1,11,13,,,28,15,44,096,27,16,,,27,18,61,344,33*72
$GPGSV,3,2,11,21,,,26,23,55,235,22,25,08,184,21,26,30,275,17*4A
$GPGSV,3,3,11,29,,,26,46,45,146,29,51,49,161,30*71
$GLGSV,1,1,00*65
$GNGLL,3352.52382,N,11824.48801,W,212819.00,A,A*66
$GNRMC,212820.00,V,,,,,,,260720,,,N*69
$GNVTG,,,,,,,,,N*2E
$GNGGA,212820.00,,,,,0,04,2.53,,,,,,*43
$GNGSA,A,1,15,18,29,26,,,,,,,,,5.40,2.53,4.76*1C
$GNGSA,A,1,,,,,,,,,,,,,5.40,2.53,4.76*1E
$GPGSV,3,1,11,13,,,14,15,44,096,32,16,,,26,18,61,344,32*79
$GPGSV,3,2,11,21,,,24,23,55,235,30,25,08,184,20,26,30,275,18*45
$GPGSV,3,3,11,29,56,131,27,46,45,146,30,51,49,161,29*40
$GLGSV,1,1,00*65
$GNGLL,,,,,212820.00,V,N*5F
$GNRMC,212821.00,V,,,,,,,260720,,,N*68
$GNVTG,,,,,,,,,N*2E
$GNGGA,212821.00,,,,,0,04,2.53,,,,,,*42
$GNGSA,A,1,15,18,29,26,,,,,,,,,5.40,2.53,4.76*1C
$GNGSA,A,1,,,,,,,,,,,,,5.40,2.53,4.76*1E
$GPGSV,3,1,11,13,,,26,15,44,096,27,16,,,33,18,61,344,31*7B
$GPGSV,3,2,11,21,,,32,23,55,235,25,25,08,184,28,26,30,275,32*46
$GPGSV,3,3,11,29,56,131,26,46,45,146,33,51,49,161,33*49
$GLGSV,1,1,00*65
$GNGLL,,,,,212821.00,V,N*5E
$GNRMC,212822.00,V,,,,,,,260720,,,N*6B
$GNVTG,,,,,,,,,N*2E
$GNGGA,212822.00,,,,,0,04,2.53,,,,,,*41
$GNGSA,A,1,15,18,29,26,,,,,,,,,5.40,2.53,4.76*1C
$GNGSA,A,1,,,,,,,,,,,,,5.40,2.53,4.76*1E
$GPGSV,3,1,11,13,,,15,15,44,096,27,16,,,27,18,61,344,30*7F
$GPGSV,3,2,11,21,,,27,23,55,235,27,25,08,184,28,26,30,275,27*44
$GPGSV,3,3,11,29,56,131,28,46,45,146,33,51,49,161,33*47
$GLGSV,1,1,00*65
$GNGLL,,,,,212822.00,V,N*5D
$GNRMC,212823.00,A,3352.52666,N,11824.48455,W,1.777,,260720,,,A*73
$GNVTG,,T,,M,1.777,N,3.291,K,A*32
$GNGGA,212823.00,3352.52666,N,11824.48455,W,1,04,2.53,-10.9,M,-33.2,M,,*62
$GNGSA,A,3,15,18,29,26,,,,,,,,,5.40,2.53,4.77*1F
$GNGSA,A,3,,,,,,,,,,,,,5.40,2.53,4.77*1D
$GPGSV,3,1,10,13,,,20,15,44,096,32,16,,,26,18,61,344,28*74
$GPGSV,3,2,10,21,,,24,23,55,235,28,25,08,184,26,26,30,275,26*46
$GPGSV,3,3,10,29,56,131,38,46,45,146,29*73
$GLGSV,1,1,00*65
$GNGLL,3352.52666,N,11824.48455,W,212823.00,A,A*6D
$GNRMC,212824.00,A,3352.52617,N,11824.48562,W,0.982,,260720,,,A*72
$GNVTG,,T,,M,0.982,N,1.819,K,A*3F
$GNGGA,212824.00,3352.52617,N,11824.48562,W,1,04,2.53,-6.9,M,-33.2,M,,*51
$GNGSA,A,3,15,18,29,26,,,,,,,,,5.40,2.53,4.77*1F
$GNGSA,A,3,,,,,,,,,,,,,5.40,2.53,4.77*1D
$GPGSV,3,1,10,13,,,25,15,44,096,32,16,,,26,18,61,344,27*7E
$GPGSV,3,2,10,21,,,25,23,55,235,28,25,07,184,25,26,30,275,25*48
$GPGSV,3,3,10,29,56,131,33,46,45,146,30*70
$GLGSV,1,1,00*65
$GNGLL,3352.52617,N,11824.48562,W,212824.00,A,A*69
$GNRMC,212825.00,A,3352.52649,N,11824.48670,W,1.859,348.59,260720,,,A*63
$GNVTG,348.59,T,,M,1.859,N,3.443,K,A*25
$GNGGA,212825.00,3352.52649,N,11824.48670,W,1,04,2.53,-4.0,M,-33.2,M,,*50
$GNGSA,A,3,15,18,29,26,,,,,,,,,5.40,2.53,4.77*1F
$GNGSA,A,3,,,,,,,,,,,,,5.40,2.53,4.77*1D
$GPGSV,3,1,10,13,,,26,15,44,096,35,16,,,24,18,61,344,33*7D
$GPGSV,3,2,10,21,,,24,23,55,235,29,25,07,184,23,26,30,275,23*48
$GPGSV,3,3,10,29,56,131,36,46,45,146,31*74
$GLGSV,1,1,01,,,,28*6E
$GNGLL,3352.52649,N,11824.48670,W,212825.00,A,A*63
$GNRMC,212826.00,A,3352.52745,N,11824.48622,W,2.352,,260720,,,A*74
$GNVTG,,T,,M,2.352,N,4.356,K,A*3F
$GNGGA,212826.00,3352.52745,N,11824.48622,W,1,04,2.53,-1.9,M,-33.2,M,,*55
$GNGSA,A,3,15,18,29,26,,,,,,,,,5.40,2.53,4.77*1F
$GNGSA,A,3,,,,,,,,,,,,,5.40,2.53,4.77*1D
$GPGSV,3,1,10,13,,,25,15,44,096,32,16,,,30,18,61,344,28*76
$GPGSV,3,2,10,21,,,30,23,55,235,32,25,07,184,31,26,30,275,30*46
$GPGSV,3,3,10,29,56,131,32,46,45,146,34*75
$GLGSV,1,1,01,,,,16*63
$GNGLL,3352.52745,N,11824.48622,W,212826.00,A,A*6A
$GNRMC,212827.00,A,3352.52763,N,11824.48643,W,1.255,,260720,,,A*73
$GNVTG,,T,,M,1.255,N,2.324,K,A*39
$GNGGA,212827.00,3352.52763,N,11824.48643,W,1,04,2.53,-1.4,M,-33.2,M,,*5A
$GNGSA,A,3,15,18,29,26,,,,,,,,,5.40,2.53,4.77*1F
$GNGSA,A,3,,,,,,,,,,,,,5.40,2.53,4.77*1D
$GPGSV,3,1,10,13,,,24,15,44,096,31,16,,,23,18,61,344,30*7F
$GPGSV,3,2,10,21,,,23,23,55,235,27,25,07,184,24,26,30,275,22*47
$GPGSV,3,3,10,29,56,131,31,46,45,146,29*7A
$GLGSV,1,1,01,,,,16*63
$GNGLL,3352.52763,N,11824.48643,W,212827.00,A,A*68
$GNRMC,212828.00,A,3352.52771,N,11824.48648,W,1.113,,260720,,,A*75
$GNVTG,,T,,M,1.113,N,2.061,K,A*3A
$GNGGA,212828.00,3352.52771,N,11824.48648,W,1,04,2.53,-1.0,M,-33.2,M,,*59
$GNGSA,A,3,15,18,29,26,,,,,,,,,5.40,2.53,4.77*1F
$GNGSA,A,3,,,,,,,,,,,,,5.40,2.53,4.77*1D
$GPGSV,3,1,10,13,,,30,15,44,096,34,16,,,29,18,61,344,31*74
$GPGSV,3,2,10,21,,,31,23,55,235,32,25,07,184,23,26,30,275,26*43
$GPGSV,3,3,10,29,56,131,32,46,45,146,36*77
$GLGSV,1,1,01,,,,20*66
$GNGLL,3352.52771,N,11824.48648,W,212828.00,A,A*6F
$GNRMC,212829.00,A,3352.52726,N,11824.48628,W,0.157,,260720,,,A*71
$GNVTG,,T,,M,0.157,N,0.290,K,A*35
$GNGGA,212829.00,3352.52726,N,11824.48628,W,1,04,2.53,-1.2,M,-33.2,M,,*5E
$GNGSA,A,3,15,18,29,26,,,,,,,,,5.40,2.53,4.77*1F
$GNGSA,A,3,,,,,,,,,,,,,5.40,2.53,4.77*1D
$GPGSV,3,1,10,13,,,22,15,44,096,23,16,,,29,18,61,344,32*72
$GPGSV,3,2,10,21,,,30,23,55,235,35,25,07,184,24,26,30,275,26*42
$GPGSV,3,3,10,29,56,131,35,46,45,146,35*73
$GLGSV,1,1,01,,,,20*66
$GNGLL,3352.52726,N,11824.48628,W,212829.00,A,A*6A
$GNRMC,212830.00,A,3352.52714,N,11824.48647,W,0.235,,260720,,,A*76
$GNVTG,,T,,M,0.235,N,0.434,K,A*3A
$GNGGA,212830.00,3352.52714,N,11824.48647,W,1,04,2.53,-1.7,M,-33.2,M,,*5B
$GNGSA,A,3,15,18,29,26,,,,,,,,,5.40,2.53,4.77*1F
$GNGSA,A,3,,,,,,,,,,,,,5.40,2.53,4.77*1D
$GPGSV,3,1,10,13,,,29,15,44,096,30,16,,,29,18,61,344,30*79
$GPGSV,3,2,10,21,,,31,23,55,235,25,25,07,184,23,26,30,275,27*44
$GPGSV,3,3,10,29,56,131,30,46,45,146,31*72
$GLGSV,1,1,01,,,,21*67
$GNGLL,3352.52714,N,11824.48647,W,212830.00,A,A*6A
$GNRMC,212831.00,A,3352.52678,N,11824.48683,W,1.637,296.61,260720,,,A*67
$GNVTG,296.61,T,,M,1.637,N,3.031,K,A*2B
$GNGGA,212831.00,3352.52678,N,11824.48683,W,1,04,2.53,-3.2,M,-33.2,M,,*5E
$GNGSA,A,3,15,18,29,26,,,,,,,,,5.40,2.53,4.77*1F
$GNGSA,A,3,,,,,,,,,,,,,5.40,2.53,4.77*1D
$GPGSV,3,1,10,13,,,33,15,44,096,26,16,,,29,18,61,344,30*75
$GPGSV,3,2,10,21,,,31,23,55,235,31,25,07,184,24,26,30,275,27*46
$GPGSV,3,3,10,29,56,131,30,46,45,146,30*73
$GLGSV,1,1,01,,,,22*64
$GNGLL,3352.52678,N,11824.48683,W,212831.00,A,A*68
$GNRMC,212832.00,A,3352.52650,N,11824.48691,W,1.307,,260720,,,A*7F
$GNVTG,,T,,M,1.307,N,2.421,K,A*3D
$GNGGA,212832.00,3352.52650,N,11824.48691,W,1,04,2.53,-1.6,M,-33.2,M,,*52
$GNGSA,A,3,15,18,29,26,,,,,,,,,5.40,2.53,4.77*1F
$GNGSA,A,3,,,,,,,,,,,,,5.40,2.53,4.77*1D
$GPGSV,3,1,10,13,,,34,15,44,096,30,16,,,28,18,61,344,31*75
$GPGSV,3,2,10,21,,,30,23,55,235,30,25,07,184,24,26,30,275,28*49
$GPGSV,3,3,10,29,56,131,26,46,45,146,29*7C
$GLGSV,1,1,01,,,,27*61
$GNGLL,3352.52650,N,11824.48691,W,212832.00,A,A*62
$GNRMC,212833.00,A,3352.52637,N,11824.48674,W,0.442,,260720,,,A*73
$GNVTG,,T,,M,0.442,N,0.819,K,A*3F
$GNGGA,212833.00,3352.52637,N,11824.48674,W,1,04,2.53,-2.7,M,-33.2,M,,*5B
$GNGSA,A,3,15,18,29,26,,,,,,,,,5.40,2.53,4.77*1F
$GNGSA,A,3,,,,,,,,,,,,,5.40,2.53,4.77*1D
$GPGSV,3,1,10,13,,,34,15,44,096,29,16,,,27,18,61,344,30*73
$GPGSV,3,2,10,21,,,30,23,55,235,29,25,07,184,25,26,30,275,28*40
$GPGSV,3,3,10,29,56,131,28,46,45,146,29*72
$GLGSV,1,1,01,,,,28*6E
$GNGLL,3352.52637,N,11824.48674,W,212833.00,A,A*69
$GNRMC,212834.00,A,3352.52633,N,11824.48669,W,0.348,,260720,,,A*71
$GNVTG,,T,,M,0.348,N,0.645,K,A*35
$GNGGA,212834.00,3352.52633,N,11824.48669,W,1,04,2.53,-3.3,M,-33.2,M,,*51
$GNGSA,A,3,15,18,29,26,,,,,,,,,5.40,2.53,4.77*1F
$GNGSA,A,3,,,,,,,,,,,,,5.40,2.53,4.77*1D
$GPGSV,3,1,10,13,,,34,15,44,096,30,16,,,28,18,61,344,30*74
$GPGSV,3,2,10,21,,,31,23,55,235,28,25,07,184,26,26,30,275,28*43
$GPGSV,3,3,10,29,56,131,29,46,45,146,30*7B
$GLGSV,1,1,01,,,,28*6E
$GNGLL,3352.52633,N,11824.48669,W,212834.00,A,A*66
$GNRMC,212835.00,A,3352.52624,N,11824.48682,W,0.161,,260720,,,A*7A
$GNVTG,,T,,M,0.161,N,0.298,K,A*38
$GNGGA,212835.00,3352.52624,N,11824.48682,W,1,04,2.53,-2.2,M,-33.2,M,,*53
$GNGSA,A,3,15,18,29,26,,,,,,,,,5.40,2.53,4.77*1F
$GNGSA,A,3,,,,,,,,,,,,,5.40,2.53,4.77*1D
$GPGSV,3,1,10,13,,,34,15,44,096,31,16,,,28,18,61,344,30*75
$GPGSV,3,2,10,21,,,32,23,55,235,27,25,07,184,26,26,30,275,29*4E
$GPGSV,3,3,10,29,56,131,29,46,45,146,30*7B
$GLGSV,1,1,01,,,,28*6E
$GNGLL,3352.52624,N,11824.48682,W,212835.00,A,A*64
$GNRMC,212836.00,A,3352.52638,N,11824.48674,W,0.146,,260720,,,A*78
$GNVTG,,T,,M,0.146,N,0.269,K,A*33
$GNGGA,212836.00,3352.52638,N,11824.48674,W,1,04,2.52,-2.4,M,-33.2,M,,*53
$GNGSA,A,3,15,18,29,26,,,,,,,,,5.40,2.52,4.77*1E
$GNGSA,A,3,,,,,,,,,,,,,5.40,2.52,4.77*1C
$GPGSV,3,1,10,13,,,34,15,44,096,31,16,,,29,18,61,344,31*75
$GPGSV,3,2,10,21,,,32,23,55,235,27,25,07,184,26,26,30,275,29*4E
$GPGSV,3,3,10,29,56,131,30,46,45,146,30*73
$GLGSV,1,1,01,,,,28*6E
$GNGLL,3352.52638,N,11824.48674,W,212836.00,A,A*63
$GNRMC,212837.00,A,3352.52650,N,11824.48678,W,0.055,,260720,,,A*78
$GNVTG,,T,,M,0.055,N,0.101,K,A*3D
$GNGGA,212837.00,3352.52650,N,11824.48678,W,1,04,2.52,-2.1,M,-33.2,M,,*55
$GNGSA,A,3,15,18,29,26,,,,,,,,,5.40,2.52,4.77*1E
$GNGSA,A,3,,,,,,,,,,,,,5.40,2.52,4.77*1C
$GPGSV,3,1,11,13,,,34,15,44,096,31,16,,,29,18,61,344,31*74
$GPGSV,3,2,11,21,,,32,23,55,235,27,25,07,184,26,26,30,275,28*4E
$GPGSV,3,3,11,29,56,131,31,46,45,146,31,51,49,161,33*4D
$GLGSV,1,1,01,,,,29*6F
$GNGLL,3352.52650,N,11824.48678,W,212837.00,A,A*60
$GNRMC,212838.00,A,3352.52648,N,11824.48692,W,0.039,,260720,,,A*70
$GNVTG,,T,,M,0.039,N,0.072,K,A*32
$GNGGA,212838.00,3352.52648,N,11824.48692,W,1,04,2.52,-1.6,M,-33.2,M,,*53
$GNGSA,A,3,15,18,29,26,,,,,,,,,5.40,2.52,4.77*1E
$GNGSA,A,3,,,,,,,,,,,,,5.40,2.52,4.77*1C
$GPGSV,3,1,11,13,,,34,15,44,096,31,16,,,29,18,61,344,31*74
$GPGSV,3,2,11,21,,,32,23,55,235,27,25,07,184,26,26,30,275,28*4E
$GPGSV,3,3,11,29,56,131,31,46,45,146,31,51,49,161,33*4D
$GLGSV,1,1,01,,,,29*6F
$GNGLL,3352.52648,N,11824.48692,W,212838.00,A,A*62
$GNRMC,212839.00,A,3352.52636,N,11824.48702,W,0.022,,260720,,,A*7A
$GNVTG,,T,,M,0.022,N,0.040,K,A*39
$GNGGA,212839.00,3352.52636,N,11824.48702,W,1,04,2.52,-1.2,M,-33.2,M,,*57
$GNGSA,A,3,15,18,29,26,,,,,,,,,5.40,2.52,4.77*1E
$GNGSA,A,3,,,,,,,,,,,,,5.40,2.52,4.77*1C
$GPGSV,3,1,11,13,,,34,15,44,096,31,16,,,29,18,61,344,31*74
$GPGSV,3,2,11,21,,,32,23,55,235,27,25,07,184,26,26,30,275,28*4E
$GPGSV,3,3,11,29,56,131,31,46,45,146,30,51,49,161,33*4C
$GLGSV,1,1,01,,,,28*6E
$GNGLL,3352.52636,N,11824.48702,W,212839.00,A,A*62
$GNRMC,212840.00,A,3352.52630,N,11824.48702,W,0.025,,260720,,,A*75
$GNVTG,,T,,M,0.025,N,0.046,K,A*38
$GNGGA,212840.00,3352.52630,N,11824.48702,W,1,04,2.52,-1.1,M,-33.2,M,,*5C
$GNGSA,A,3,15,18,29,26,,,,,,,,,5.40,2.52,4.78*11
$GNGSA,A,3,,,,,,,,,,,,,5.40,2.52,4.78*13
$GPGSV,3,1,11,13,,,34,15,44,096,31,16,,,29,18,61,344,31*74
$GPGSV,3,2,11,21,,,32,23,55,235,27,25,07,184,26,26,30,275,28*4E
$GPGSV,3,3,11,29,56,131,31,46,45,146,30,51,49,161,33*4C
$GLGSV,1,1,01,,,,29*6F
$GNGLL,3352.52630,N,11824.48702,W,212840.00,A,A*6A
$GNRMC,212841.00,A,3352.52629,N,11824.48706,W,0.124,,260720,,,A*78
$GNVTG,,T,,M,0.124,N,0.229,K,A*33
$GNGGA,212841.00,3352.52629,N,11824.48706,W,1,04,2.52,-0.7,M,-33.2,M,,*56
$GNGSA,A,3,15,18,29,26,,,,,,,,,5.40,2.52,4.78*11
$GNGSA,A,3,,,,,,,,,,,,,5.40,2.52,4.78*13
$GPGSV,3,1,11,13,,,34,15,44,096,31,16,,,29,18,61,344,31*74
$GPGSV,3,2,11,21,,,32,23,55,235,27,25,07,184,27,26,30,275,28*4F
$GPGSV,3,3,11,29,56,131,31,46,45,146,30,51,49,161,33*4C
$GLGSV,1,1,01,,,,29*6F
$GNGLL,3352.52629,N,11824.48706,W,212841.00,A,A*67
$GNRMC,212842.00,A,3352.52642,N,11824.48711,W,0.124,,260720,,,A*70
$GNVTG,,T,,M,0.124,N,0.230,K,A*3B
$GNGGA,212842.00,3352.52642,N,11824.48711,W,1,04,2.52,-0.3,M,-33.2,M,,*5A
$GNGSA,A,3,15,18,29,26,,,,,,,,,5.40,2.52,4.78*11
$GNGSA,A,3,,,,,,,,,,,,,5.40,2.52,4.78*13
$GPGSV,3,1,11,13,,,34,15,44,096,31,16,,,29,18,61,344,30*75
$GPGSV,3,2,11,21,,,31,23,55,235,27,25,07,184,27,26,30,275,28*4C
$GPGSV,3,3,11,29,56,131,30,46,45,146,30,51,49,161,33*4D
$GLGSV,1,1,01,,,,28*6E
$GNGLL,3352.52642,N,11824.48711,W,212842.00,A,A*6F
$GNRMC,212843.00,A,3352.52642,N,11824.48715,W,0.081,,260720,,,A*7B
$GNVTG,,T,,M,0.081,N,0.149,K,A*38
$GNGGA,212843.00,3352.52642,N,11824.48715,W,1,04,2.52,-0.5,M,-33.2,M,,*59
$GNGSA,A,3,15,18,29,26,,,,,,,,,5.40,2.52,4.78*11
$GNGSA,A,3,,,,,,,,,,,,,5.40,2.52,4.78*13
$GPGSV,3,1,11,13,,,34,15,44,096,31,16,,,29,18,61,344,29*7D
$GPGSV,3,2,11,21,,,31,23,55,235,28,25,07,184,26,26,30,275,28*42
$GPGSV,3,3,11,29,56,131,30,46,45,146,30,51,49,161,33*4D
$GLGSV,1,1,01,,,,28*6E
$GNGLL,3352.52642,N,11824.48715,W,212843.00,A,A*6A
$GNRMC,212844.00,A,3352.52647,N,11824.48719,W,0.259,,260720,,,A*72
$GNVTG,,T,,M,0.259,N,0.480,K,A*3F
$GNGGA,212844.00,3352.52647,N,11824.48719,W,1,04,2.52,-0.7,M,-33.2,M,,*55
$GNGSA,A,3,15,18,29,26,,,,,,,,,5.40,2.52,4.78*11
$GNGSA,A,3,,,,,,,,,,,,,5.40,2.52,4.78*13
$GPGSV,3,1,11,13,,,34,15,44,096,31,16,,,29,18,61,344,29*7D
$GPGSV,3,2,11,21,,,32,23,55,235,28,25,07,184,26,26,30,275,28*41
$GPGSV,3,3,11,29,56,131,30,46,45,146,31,51,49,161,33*4C
$GLGSV,1,1,01,,,,28*6E
$GNGLL,3352.52647,N,11824.48719,W,212844.00,A,A*64
$GNRMC,212845.00,A,3352.52642,N,11824.48719,W,0.099,,260720,,,A*78
$GNVTG,,T,,M,0.099,N,0.184,K,A*30
$GNGGA,212845.00,3352.52642,N,11824.48719,W,1,04,2.52,-0.9,M,-33.2,M,,*5F
$GNGSA,A,3,15,18,29,26,,,,,,,,,5.40,2.52,4.78*11
$GNGSA,A,3,,,,,,,,,,,,,5.40,2.52,4.78*13
$GPGSV,3,1,11,13,,,34,15,44,096,31,16,,,29,18,61,344,29*7D
$GPGSV,3,2,11,21,,,31,23,55,235,28,25,07,184,26,26,30,275,28*42
$GPGSV,3,3,11,29,56,131,30,46,45,146,31,51,49,161,33*4C
$GLGSV,1,1,01,,,,28*6E
$GNGLL,3352.52642,N,11824.48719,W,212845.00,A,A*60
$GNRMC,212846.00,A,3352.52622,N,11824.48725,W,0.167,,260720,,,A*72
$GNVTG,,T,,M,0.167,N,0.309,K,A*37
$GNGGA,212846.00,3352.52622,N,11824.48725,W,1,04,2.52,-0.8,M,-33.2,M,,*54
$GNGSA,A,3,15,18,29,26,,,,,,,,,5.40,2.52,4.78*11
$GNGSA,A,3,,,,,,,,,,,,,5.40,2.52,4.78*13
$GPGSV,3,1,11,13,,,33,15,44,096,31,16,,,29,18,61,344,30*72
$GPGSV,3,2,11,21,,,31,23,55,235,28,25,07,184,26,26,30,275,28*42
$GPGSV,3,3,11,29,56,131,30,46,45,146,31,51,49,161,33*4C
$GLGSV,1,1,01,,,,28*6E
$GNGLL,3352.52622,N,11824.48725,W,212846.00,A,A*6A
$GNRMC,212847.00,A,3352.52611,N,11824.48731,W,0.220,,260720,,,A*76
$GNVTG,,T,,M,0.220,N,0.408,K,A*31
$GNGGA,212847.00,3352.52611,N,11824.48731,W,1,04,2.52,-0.6,M,-33.2,M,,*5E
$GNGSA,A,3,15,18,29,26,,,,,,,,,5.40,2.52,4.78*11
$GNGSA,A,3,,,,,,,,,,,,,5.40,2.52,4.78*13
$GPGSV,3,1,11,13,,,33,15,44,096,31,16,,,29,18,61,344,29*7A
$GPGSV,3,2,11,21,,,32,23,55,235,28,25,07,184,26,26,30,275,28*41
$GPGSV,3,3,11,29,56,131,30,46,45,146,31,51,49,161,33*4C
$GLGSV,1,1,01,,,,28*6E
$GNGLL,3352.52611,N,11824.48731,W,212847.00,A,A*6E
$GNRMC,212848.00,A,3352.52602,N,11824.48725,W,0.725,,260720,,,A*7E
$GNVTG,,T,,M,0.725,N,1.342,K,A*39
$GNGGA,212848.00,3352.52602,N,11824.48725,W,1,04,2.52,-0.8,M,-33.2,M,,*58
$GNGSA,A,3,15,18,29,26,,,,,,,,,5.40,2.52,4.78*11
$GNGSA,A,3,,,,,,,,,,,,,5.40,2.52,4.78*13
$GPGSV,3,1,11,13,,,33,15,44,096,31,16,,,29,18,61,344,29*7A
$GPGSV,3,2,11,21,,,32,23,55,235,28,25,07,184,26,26,30,275,28*41
$GPGSV,3,3,11,29,56,131,30,46,45,146,30,51,49,161,33*4D
$GLGSV,1,1,01,,,,28*6E
$GNGLL,3352.52602,N,11824.48725,W,212848.00,A,A*66
$GNRMC,212849.00,A,3352.52611,N,11824.48742,W,0.193,,260720,,,A*77
$GNVTG,,T,,M,0.193,N,0.358,K,A*38
$GNGGA,212849.00,3352.52611,N,11824.48742,W,1,04,2.52,-0.1,M,-33.2,M,,*53
$GNGSA,A,3,15,18,29,26,,,,,,,,,5.40,2.52,4.78*11
$GNGSA,A,3,,,,,,,,,,,,,5.40,2.52,4.78*13
$GPGSV,3,1,11,13,,,34,15,44,096,32,16,,,29,18,61,345,29*7F
$GPGSV,3,2,11,21,,,32,23,55,235,28,25,07,184,26,26,30,275,28*41
$GPGSV,3,3,11,29,56,131,30,46,45,146,30,51,49,161,33*4D
$GLGSV,1,1,01,,,,28*6E
$GNGLL,3352.52611,N,11824.48742,W,212849.00,A,A*64
$GNRMC,212850.00,A,3352.52632,N,11824.48740,W,0.223,,260720,,,A*74
$GNVTG,,T,,M,0.223,N,0.413,K,A*38
$GNGGA,212850.00,3352.52632,N,11824.48740,W,1,04,2.52,0.0,M,-33.2,M,,*74
$GNGSA,A,3,15,18,29,26,,,,,,,,,5.40,2.52,4.78*11
$GNGSA,A,3,,,,,,,,,,,,,5.40,2.52,4.78*13
$GPGSV,3,1,11,13,,,34,15,44,096,32,16,,,29,18,61,345,29*7F
$GPGSV,3,2,11,21,,,32,23,55,236,27,25,07,184,26,26,30,275,28*4D
$GPGSV,3,3,11,29,56,131,30,46,45,146,31,51,49,161,33*4C
$GLGSV,1,1,01,,,,28*6E
$GNGLL,3352.52632,N,11824.48740,W,212850.00,A,A*6F
$GNRMC,212851.00,A,3352.52641,N,11824.48747,W,0.124,,260720,,,A*72
$GNVTG,,T,,M,0.124,N,0.229,K,A*33
$GNGGA,212851.00,3352.52641,N,11824.48747,W,1,04,2.52,0.2,M,-33.2,M,,*74
$GNGSA,A,3,15,18,29,26,,,,,,,,,5.40,2.52,4.78*11
$GNGSA,A,3,,,,,,,,,,,,,5.40,2.52,4.78*13
